{"type":"FeatureCollection","features":[{"type":"Feature","geometry":{"coordinates":[2.3354369048459884,48.834349034877256],"type":"Point"},"properties":{"id_projet":"COLLEGES (ann\u00e9e scolaire 2020\/2021)","libelle":"ST EXUPERY","adresse":"89 BOULEVARD ARAGO","arr_libelle":"14\u00e8me Ardt","arr_insee":75114,"annee_scol":"2020-2021","type_etabl":"Coll\u00e8ge","geo_point_2d":{"lon":2.3354369048459884,"lat":48.834349034877256}}},{"type":"Feature","geometry":{"coordinates":[2.3765366364279124,48.87628979019915],"type":"Point"},"properties":{"id_projet":"COLLEGES (ann\u00e9e scolaire 2020\/2021)","libelle":"CHARLES PEGUY","adresse":"69 AVENUE SIMON BOLIVAR","arr_libelle":"19\u00e8me Ardt","arr_insee":75119,"annee_scol":"2020-2021","type_etabl":"Coll\u00e8ge","geo_point_2d":{"lon":2.3765366364279124,"lat":48.87628979019915}}},{"type":"Feature","geometry":{"coordinates":[2.3863943215388685,48.88433022802427],"type":"Point"},"properties":{"id_projet":"COLLEGES (ann\u00e9e scolaire 2020\/2021)","libelle":"GEORGES BRASSENS","adresse":"4 RUE ERIK SATIE","arr_libelle":"19\u00e8me Ardt","arr_insee":75119,"annee_scol":"2020-2021","type_etabl":"Coll\u00e8ge","geo_point_2d":{"lon":2.3863943215388685,"lat":48.88433022802427}}},{"type":"Feature","geometry":{"coordinates":[2.376485834379865,48.89366655755415],"type":"Point"},"properties":{"id_projet":"COLLEGES (ann\u00e9e scolaire 2020\/2021)","libelle":"EDMOND MICHELET","adresse":"70 RUE DE L' OURCQ","arr_libelle":"19\u00e8me Ardt","arr_insee":75119,"annee_scol":"2020-2021","type_etabl":"Coll\u00e8ge","geo_point_2d":{"lon":2.376485834379865,"lat":48.89366655755415}}},{"type":"Feature","geometry":{"coordinates":[2.378040375653599,48.881137694884536],"type":"Point"},"properties":{"id_projet":"COLLEGES (ann\u00e9e scolaire 2020\/2021)","libelle":"HENRI BERGSON","adresse":"27 bis RUE EDOUARD PAILLERON","arr_libelle":"19\u00e8me Ardt","arr_insee":75119,"annee_scol":"2020-2021","type_etabl":"Coll\u00e8ge","geo_point_2d":{"lon":2.378040375653599,"lat":48.881137694884536}}},{"type":"Feature","geometry":{"coordinates":[2.3283199536449017,48.827730325591624],"type":"Point"},"properties":{"id_projet":"COLLEGES (ann\u00e9e scolaire 2021\/2022)","libelle":"JEAN MOULIN","adresse":"75 RUE D' ALESIA","arr_libelle":"14\u00e8me Ardt","arr_insee":75114,"annee_scol":"2021-2022","type_etabl":"Coll\u00e8ge","geo_point_2d":{"lon":2.3283199536449017,"lat":48.827730325591624}}},{"type":"Feature","geometry":{"coordinates":[2.363067598532842,48.8895947927362],"type":"Point"},"properties":{"id_projet":"COLLEGES (ann\u00e9e scolaire 2021\/2022)","libelle":"AIME CESAIRE","adresse":"22 RUE PAJOL","arr_libelle":"18\u00e8me Ardt","arr_insee":75118,"annee_scol":"2021-2022","type_etabl":"Coll\u00e8ge","geo_point_2d":{"lon":2.363067598532842,"lat":48.8895947927362}}},{"type":"Feature","geometry":{"coordinates":[2.3781287412764107,48.88593429740651],"type":"Point"},"properties":{"id_projet":"COLLEGES (ann\u00e9e scolaire 2021\/2022)","libelle":"SONIA DELAUNAY","adresse":"14 RUE EURYALE DEHAYNIN","arr_libelle":"19\u00e8me Ardt","arr_insee":75119,"annee_scol":"2021-2022","type_etabl":"Coll\u00e8ge","geo_point_2d":{"lon":2.3781287412764107,"lat":48.88593429740651}}},{"type":"Feature","geometry":{"coordinates":[2.332815674978112,48.89581466967536],"type":"Point"},"properties":{"id_projet":"COLLEGES (ann\u00e9e scolaire 2021\/2022)","libelle":"HECTOR BERLIOZ","adresse":"17 RUE GEORGETTE AGUTTE","arr_libelle":"18\u00e8me Ardt","arr_insee":75118,"annee_scol":"2021-2022","type_etabl":"Coll\u00e8ge","geo_point_2d":{"lon":2.332815674978112,"lat":48.89581466967536}}},{"type":"Feature","geometry":{"coordinates":[2.290514944291562,48.87881043889032],"type":"Point"},"properties":{"id_projet":"COLLEGES (ann\u00e9e scolaire 2022\/2023)","libelle":"ANDRE MALRAUX","adresse":"5 bis RUE SAINT-FERDINAND","arr_libelle":"17\u00e8me Ardt","arr_insee":75117,"annee_scol":"2022-2023","type_etabl":"Coll\u00e8ge","geo_point_2d":{"lon":2.290514944291562,"lat":48.87881043889032}}},{"type":"Feature","geometry":{"coordinates":[2.3348321149353644,48.844237396416126],"type":"Point"},"properties":{"id_projet":"COLLEGES (ann\u00e9e scolaire 2022\/2023)","libelle":"MONTAIGNE","adresse":"17 RUE AUGUSTE COMTE","arr_libelle":"6\u00e8me Ardt","arr_insee":75106,"annee_scol":"2022-2023","type_etabl":"Coll\u00e8ge","geo_point_2d":{"lon":2.3348321149353644,"lat":48.844237396416126}}},{"type":"Feature","geometry":{"coordinates":[2.3047394660611222,48.83170273369949],"type":"Point"},"properties":{"id_projet":"COLLEGES (ann\u00e9e scolaire 2022\/2023)","libelle":"AMEDEO MODIGLIANI","adresse":"1 RUE DE CHERBOURG","arr_libelle":"15\u00e8me Ardt","arr_insee":75115,"annee_scol":"2022-2023","type_etabl":"Coll\u00e8ge","geo_point_2d":{"lon":2.3047394660611222,"lat":48.83170273369949}}},{"type":"Feature","geometry":{"coordinates":[2.371691242263032,48.87485079446566],"type":"Point"},"properties":{"id_projet":"COLLEGES (ann\u00e9e scolaire 2022\/2023)","libelle":"FRANCOISE SELIGMAN","adresse":"21 RUE DE SAMBRE ET MEUSE","arr_libelle":"10\u00e8me Ardt","arr_insee":75110,"annee_scol":"2022-2023","type_etabl":"Coll\u00e8ge","geo_point_2d":{"lon":2.371691242263032,"lat":48.87485079446566}}},{"type":"Feature","geometry":{"coordinates":[2.402724143981059,48.869999093875464],"type":"Point"},"properties":{"id_projet":"COLLEGES (ann\u00e9e scolaire 2023\/2024)","libelle":"LEON GAMBETTA","adresse":"149 AVENUE GAMBETTA","arr_libelle":"20\u00e8me Ardt","arr_insee":75120,"annee_scol":"2023-2024","type_etabl":"Coll\u00e8ge","geo_point_2d":{"lon":2.402724143981059,"lat":48.869999093875464}}},{"type":"Feature","geometry":{"coordinates":[2.3442026798992033,48.86535583739994],"type":"Point"},"properties":{"id_projet":"COLLEGES (ann\u00e9e scolaire 2023\/2024)","libelle":"CESAR FRANCK","adresse":"5 RUE DE LA JUSSIENNE","arr_libelle":"2\u00e8me Ardt","arr_insee":75102,"annee_scol":"2023-2024","type_etabl":"Coll\u00e8ge","geo_point_2d":{"lon":2.3442026798992033,"lat":48.86535583739994}}},{"type":"Feature","geometry":{"coordinates":[2.3428861827644454,48.82458829124478],"type":"Point"},"properties":{"id_projet":"COLLEGES (ann\u00e9e scolaire 2023\/2024)","libelle":"GEORGES BRAQUE","adresse":"91 RUE BRILLAT-SAVARIN","arr_libelle":"13\u00e8me Ardt","arr_insee":75113,"annee_scol":"2023-2024","type_etabl":"Coll\u00e8ge","geo_point_2d":{"lon":2.3428861827644454,"lat":48.82458829124478}}},{"type":"Feature","geometry":{"coordinates":[2.267323661986637,48.847305414456955],"type":"Point"},"properties":{"id_projet":"COLLEGES (ann\u00e9e scolaire 2023\/2024)","libelle":"JEAN-BAPTISTE SAY","adresse":"11 bis RUE D' AUTEUIL","arr_libelle":"16\u00e8me Ardt","arr_insee":75116,"annee_scol":"2023-2024","type_etabl":"Coll\u00e8ge","geo_point_2d":{"lon":2.267323661986637,"lat":48.847305414456955}}},{"type":"Feature","geometry":{"coordinates":[2.2565776954864436,48.845190601685545],"type":"Point"},"properties":{"id_projet":"COLLEGES (ann\u00e9e scolaire 2024\/2025)","libelle":"JEAN DE LA FONTAINE","adresse":"1 PLACE DE LA PORTE MOLITOR","arr_libelle":"16\u00e8me Ardt","arr_insee":75116,"annee_scol":"2024-2025","type_etabl":"Coll\u00e8ge","geo_point_2d":{"lon":2.2565776954864436,"lat":48.845190601685545}}},{"type":"Feature","geometry":{"coordinates":[2.3788765489694663,48.898608723283154],"type":"Point"},"properties":{"id_projet":"COLLEGES (ann\u00e9e scolaire 2024\/2025)","libelle":"SUZANNE LACORE","adresse":"149 BOULEVARD MACDONALD","arr_libelle":"19\u00e8me Ardt","arr_insee":75119,"annee_scol":"2024-2025","type_etabl":"Coll\u00e8ge","geo_point_2d":{"lon":2.3788765489694663,"lat":48.898608723283154}}},{"type":"Feature","geometry":{"coordinates":[2.3434236996737567,48.8814862743419],"type":"Point"},"properties":{"id_projet":"COLLEGES (ann\u00e9e scolaire 2024\/2025)","libelle":"JACQUES DECOUR","adresse":"12 AVENUE TRUDAINE","arr_libelle":"9\u00e8me Ardt","arr_insee":75109,"annee_scol":"2024-2025","type_etabl":"Coll\u00e8ge","geo_point_2d":{"lon":2.3434236996737567,"lat":48.8814862743419}}},{"type":"Feature","geometry":{"coordinates":[2.267323661986637,48.847305414456955],"type":"Point"},"properties":{"id_projet":"COLLEGES (ann\u00e9e scolaire 2025\/2026)","libelle":"JEAN-BAPTISTE SAY","adresse":"11 bis RUE D' AUTEUIL","arr_libelle":"16\u00e8me Ardt","arr_insee":75116,"annee_scol":"2025-2026","type_etabl":"Coll\u00e8ge","geo_point_2d":{"lon":2.267323661986637,"lat":48.847305414456955}}},{"type":"Feature","geometry":{"coordinates":[2.32697162874192,48.88097843520577],"type":"Point"},"properties":{"id_projet":"COLLEGES (ann\u00e9e scolaire 2025\/2026)","libelle":"CONDORCET","adresse":"61 RUE D' AMSTERDAM","arr_libelle":"8\u00e8me Ardt","arr_insee":75108,"annee_scol":"2025-2026","type_etabl":"Coll\u00e8ge","geo_point_2d":{"lon":2.32697162874192,"lat":48.88097843520577}}},{"type":"Feature","geometry":{"coordinates":[2.2794523152558988,48.865560914141476],"type":"Point"},"properties":{"id_projet":"COLLEGES (ann\u00e9e scolaire 2025\/2026)","libelle":"JANSON DE SAILLY","adresse":"106 RUE DE LA POMPE","arr_libelle":"16\u00e8me Ardt","arr_insee":75116,"annee_scol":"2025-2026","type_etabl":"Coll\u00e8ge","geo_point_2d":{"lon":2.2794523152558988,"lat":48.865560914141476}}},{"type":"Feature","geometry":{"coordinates":[2.387974290425766,48.86707415481146],"type":"Point"},"properties":{"id_projet":"COLLEGES (ann\u00e9e scolaire 2025\/2026)","libelle":"ROBERT DOISNEAU","adresse":"51 RUE DES PANOYAUX","arr_libelle":"20\u00e8me Ardt","arr_insee":75120,"annee_scol":"2025-2026","type_etabl":"Coll\u00e8ge","geo_point_2d":{"lon":2.387974290425766,"lat":48.86707415481146}}},{"type":"Feature","geometry":{"coordinates":[2.3962860153598617,48.87683379506429],"type":"Point"},"properties":{"id_projet":"COLLEGES (ann\u00e9e scolaire 2025\/2026)","libelle":"GUILLAUME BUDE","adresse":"7 RUE JEAN QUARRE","arr_libelle":"19\u00e8me Ardt","arr_insee":75119,"annee_scol":"2025-2026","type_etabl":"Coll\u00e8ge","geo_point_2d":{"lon":2.3962860153598617,"lat":48.87683379506429}}},{"type":"Feature","geometry":{"coordinates":[2.282679643541085,48.8465711128111],"type":"Point"},"properties":{"id_projet":"COLLEGES (ann\u00e9e scolaire 2025\/2026)","libelle":"GUILLAUME APOLLINAIRE","adresse":"39 AVENUE EMILE ZOLA","arr_libelle":"15\u00e8me Ardt","arr_insee":75115,"annee_scol":"2025-2026","type_etabl":"Coll\u00e8ge","geo_point_2d":{"lon":2.282679643541085,"lat":48.8465711128111}}},{"type":"Feature","geometry":{"coordinates":[2.374321375328781,48.86823413928675],"type":"Point"},"properties":{"id_projet":"COLLEGES (ann\u00e9e scolaire 2025\/2026)","libelle":"LUCIE ET RAYMOND AUBRAC","adresse":"62 RUE DE LA FONTAINE AU ROI","arr_libelle":"11\u00e8me Ardt","arr_insee":75111,"annee_scol":"2025-2026","type_etabl":"Coll\u00e8ge","geo_point_2d":{"lon":2.374321375328781,"lat":48.86823413928675}}},{"type":"Feature","geometry":{"coordinates":[2.368318407704825,48.881623867084365],"type":"Point"},"properties":{"id_projet":"COLLEGES (ann\u00e9e scolaire 2025\/2026)","libelle":"VALMY","adresse":"199 QUAI DE VALMY","arr_libelle":"10\u00e8me Ardt","arr_insee":75110,"annee_scol":"2025-2026","type_etabl":"Coll\u00e8ge","geo_point_2d":{"lon":2.368318407704825,"lat":48.881623867084365}}},{"type":"Feature","geometry":{"coordinates":[2.4091790646003752,48.83984209312885],"type":"Point"},"properties":{"id_projet":"COLLEGES (ann\u00e9e scolaire 2025\/2026)","libelle":"PAUL VALERY","adresse":"38 BOULEVARD SOULT","arr_libelle":"12\u00e8me Ardt","arr_insee":75112,"annee_scol":"2025-2026","type_etabl":"Coll\u00e8ge","geo_point_2d":{"lon":2.4091790646003752,"lat":48.83984209312885}}},{"type":"Feature","geometry":{"coordinates":[2.356278388990961,48.85505968002608],"type":"Point"},"properties":{"id_projet":"COLLEGES (ann\u00e9e scolaire 2020\/2021)","libelle":"FRANCOIS COUPERIN","adresse":"2 ALLEE DES JUSTES DE FRANCE","arr_libelle":"4\u00e8me Ardt","arr_insee":75104,"annee_scol":"2020-2021","type_etabl":"Coll\u00e8ge","geo_point_2d":{"lon":2.356278388990961,"lat":48.85505968002608}}},{"type":"Feature","geometry":{"coordinates":[2.305819984025646,48.82622241072023],"type":"Point"},"properties":{"id_projet":"COLLEGES (ann\u00e9e scolaire 2020\/2021)","libelle":"FRANCOIS VILLON","adresse":"10 AVENUE MARC SANGNIER","arr_libelle":"14\u00e8me Ardt","arr_insee":75114,"annee_scol":"2020-2021","type_etabl":"Coll\u00e8ge","geo_point_2d":{"lon":2.305819984025646,"lat":48.82622241072023}}},{"type":"Feature","geometry":{"coordinates":[2.3442026798992033,48.86535583739994],"type":"Point"},"properties":{"id_projet":"COLLEGES (ann\u00e9e scolaire 2020\/2021)","libelle":"CESAR FRANCK","adresse":"5 RUE DE LA JUSSIENNE","arr_libelle":"2\u00e8me Ardt","arr_insee":75102,"annee_scol":"2020-2021","type_etabl":"Coll\u00e8ge","geo_point_2d":{"lon":2.3442026798992033,"lat":48.86535583739994}}},{"type":"Feature","geometry":{"coordinates":[2.3626597620602254,48.82496991497496],"type":"Point"},"properties":{"id_projet":"COLLEGES (ann\u00e9e scolaire 2020\/2021)","libelle":"GUSTAVE FLAUBERT","adresse":"82 AVENUE D' IVRY","arr_libelle":"13\u00e8me Ardt","arr_insee":75113,"annee_scol":"2020-2021","type_etabl":"Coll\u00e8ge","geo_point_2d":{"lon":2.3626597620602254,"lat":48.82496991497496}}},{"type":"Feature","geometry":{"coordinates":[2.3259094075851534,48.82801240851196],"type":"Point"},"properties":{"id_projet":"COLLEGES (ann\u00e9e scolaire 2020\/2021)","libelle":"ALPHONSE DAUDET","adresse":"93 RUE D' ALESIA","arr_libelle":"14\u00e8me Ardt","arr_insee":75114,"annee_scol":"2020-2021","type_etabl":"Coll\u00e8ge","geo_point_2d":{"lon":2.3259094075851534,"lat":48.82801240851196}}},{"type":"Feature","geometry":{"coordinates":[2.401975118872313,48.85645682794513],"type":"Point"},"properties":{"id_projet":"COLLEGES (ann\u00e9e scolaire 2020\/2021)","libelle":"HENRI MATISSE","adresse":"3 RUE VITRUVE","arr_libelle":"20\u00e8me Ardt","arr_insee":75120,"annee_scol":"2020-2021","type_etabl":"Coll\u00e8ge","geo_point_2d":{"lon":2.401975118872313,"lat":48.85645682794513}}},{"type":"Feature","geometry":{"coordinates":[2.379036766249539,48.85192514675005],"type":"Point"},"properties":{"id_projet":"COLLEGES (ann\u00e9e scolaire 2020\/2021)","libelle":"ANNE FRANK","adresse":"38 RUE TROUSSEAU","arr_libelle":"11\u00e8me Ardt","arr_insee":75111,"annee_scol":"2020-2021","type_etabl":"Coll\u00e8ge","geo_point_2d":{"lon":2.379036766249539,"lat":48.85192514675005}}},{"type":"Feature","geometry":{"coordinates":[2.402724143981059,48.869999093875464],"type":"Point"},"properties":{"id_projet":"COLLEGES (ann\u00e9e scolaire 2020\/2021)","libelle":"LEON GAMBETTA","adresse":"149 AVENUE GAMBETTA","arr_libelle":"20\u00e8me Ardt","arr_insee":75120,"annee_scol":"2020-2021","type_etabl":"Coll\u00e8ge","geo_point_2d":{"lon":2.402724143981059,"lat":48.869999093875464}}},{"type":"Feature","geometry":{"coordinates":[2.3532818415788683,48.84827305751572],"type":"Point"},"properties":{"id_projet":"COLLEGES (ann\u00e9e scolaire 2021\/2022)","libelle":"ROGNONI","adresse":"24 RUE DU CARDINAL LEMOINE","arr_libelle":"5\u00e8me Ardt","arr_insee":75105,"annee_scol":"2021-2022","type_etabl":"Coll\u00e8ge","geo_point_2d":{"lon":2.3532818415788683,"lat":48.84827305751572}}},{"type":"Feature","geometry":{"coordinates":[2.2565776954864436,48.845190601685545],"type":"Point"},"properties":{"id_projet":"COLLEGES (ann\u00e9e scolaire 2021\/2022)","libelle":"JEAN DE LA FONTAINE","adresse":"1 PLACE DE LA PORTE MOLITOR","arr_libelle":"16\u00e8me Ardt","arr_insee":75116,"annee_scol":"2021-2022","type_etabl":"Coll\u00e8ge","geo_point_2d":{"lon":2.2565776954864436,"lat":48.845190601685545}}},{"type":"Feature","geometry":{"coordinates":[2.3838537411265492,48.85822327881152],"type":"Point"},"properties":{"id_projet":"COLLEGES (ann\u00e9e scolaire 2021\/2022)","libelle":"ALAIN FOURNIER","adresse":"87 RUE LEON FROT","arr_libelle":"11\u00e8me Ardt","arr_insee":75111,"annee_scol":"2021-2022","type_etabl":"Coll\u00e8ge","geo_point_2d":{"lon":2.3838537411265492,"lat":48.85822327881152}}},{"type":"Feature","geometry":{"coordinates":[2.379308212552385,48.88957595365006],"type":"Point"},"properties":{"id_projet":"COLLEGES (ann\u00e9e scolaire 2021\/2022)","libelle":"MOZART","adresse":"7 RUE JOMARD","arr_libelle":"19\u00e8me Ardt","arr_insee":75119,"annee_scol":"2021-2022","type_etabl":"Coll\u00e8ge","geo_point_2d":{"lon":2.379308212552385,"lat":48.88957595365006}}},{"type":"Feature","geometry":{"coordinates":[2.3648627277329224,48.82064046139026],"type":"Point"},"properties":{"id_projet":"COLLEGES (ann\u00e9e scolaire 2022\/2023)","libelle":"CAMILLE CLAUDEL","adresse":"4 bis AVENUE DE CHOISY","arr_libelle":"13\u00e8me Ardt","arr_insee":75113,"annee_scol":"2022-2023","type_etabl":"Coll\u00e8ge","geo_point_2d":{"lon":2.3648627277329224,"lat":48.82064046139026}}},{"type":"Feature","geometry":{"coordinates":[2.3406539688870316,48.88402411921948],"type":"Point"},"properties":{"id_projet":"COLLEGES (ann\u00e9e scolaire 2022\/2023)","libelle":"YVONNE LE TAC","adresse":"7 RUE YVONNE LE TAC","arr_libelle":"18\u00e8me Ardt","arr_insee":75118,"annee_scol":"2022-2023","type_etabl":"Coll\u00e8ge","geo_point_2d":{"lon":2.3406539688870316,"lat":48.88402411921948}}},{"type":"Feature","geometry":{"coordinates":[2.3626597620602254,48.82496991497496],"type":"Point"},"properties":{"id_projet":"COLLEGES (ann\u00e9e scolaire 2022\/2023)","libelle":"GUSTAVE FLAUBERT","adresse":"82 AVENUE D' IVRY","arr_libelle":"13\u00e8me Ardt","arr_insee":75113,"annee_scol":"2022-2023","type_etabl":"Coll\u00e8ge","geo_point_2d":{"lon":2.3626597620602254,"lat":48.82496991497496}}},{"type":"Feature","geometry":{"coordinates":[2.3078439600154557,48.88447741020547],"type":"Point"},"properties":{"id_projet":"COLLEGES (ann\u00e9e scolaire 2022\/2023)","libelle":"CARNOT","adresse":"145 BOULEVARD MALESHERBES","arr_libelle":"17\u00e8me Ardt","arr_insee":75117,"annee_scol":"2022-2023","type_etabl":"Coll\u00e8ge","geo_point_2d":{"lon":2.3078439600154557,"lat":48.88447741020547}}},{"type":"Feature","geometry":{"coordinates":[2.3558852290755237,48.82601379702334],"type":"Point"},"properties":{"id_projet":"COLLEGES (ann\u00e9e scolaire 2022\/2023)","libelle":"GEORGE SAND","adresse":"159 RUE DE TOLBIAC","arr_libelle":"13\u00e8me Ardt","arr_insee":75113,"annee_scol":"2022-2023","type_etabl":"Coll\u00e8ge","geo_point_2d":{"lon":2.3558852290755237,"lat":48.82601379702334}}},{"type":"Feature","geometry":{"coordinates":[2.310037489456155,48.88933528450427],"type":"Point"},"properties":{"id_projet":"COLLEGES (ann\u00e9e scolaire 2022\/2023)","libelle":"ROSE BLANCHE","adresse":"101 RUE DE SAUSSURE","arr_libelle":"17\u00e8me Ardt","arr_insee":75117,"annee_scol":"2022-2023","type_etabl":"Coll\u00e8ge","geo_point_2d":{"lon":2.310037489456155,"lat":48.88933528450427}}},{"type":"Feature","geometry":{"coordinates":[2.2785902524445145,48.838859569842995],"type":"Point"},"properties":{"id_projet":"COLLEGES (ann\u00e9e scolaire 2022\/2023)","libelle":"ANDRE CITROEN","adresse":"208 RUE SAINT-CHARLES","arr_libelle":"15\u00e8me Ardt","arr_insee":75115,"annee_scol":"2022-2023","type_etabl":"Coll\u00e8ge","geo_point_2d":{"lon":2.2785902524445145,"lat":48.838859569842995}}},{"type":"Feature","geometry":{"coordinates":[2.363861812299952,48.893141293813464],"type":"Point"},"properties":{"id_projet":"COLLEGES (ann\u00e9e scolaire 2022\/2023)","libelle":"DANIEL MAYER","adresse":"2 PLACE HEBERT","arr_libelle":"18\u00e8me Ardt","arr_insee":75118,"annee_scol":"2022-2023","type_etabl":"Coll\u00e8ge","geo_point_2d":{"lon":2.363861812299952,"lat":48.893141293813464}}},{"type":"Feature","geometry":{"coordinates":[2.2549423416320593,48.84197468243493],"type":"Point"},"properties":{"id_projet":"COLLEGES (ann\u00e9e scolaire 2023\/2024)","libelle":"CLAUDE BERNARD","adresse":"1 AVENUE DU PARC DES PRINCES","arr_libelle":"16\u00e8me Ardt","arr_insee":75116,"annee_scol":"2023-2024","type_etabl":"Coll\u00e8ge","geo_point_2d":{"lon":2.2549423416320593,"lat":48.84197468243493}}},{"type":"Feature","geometry":{"coordinates":[2.371691242263032,48.87485079446566],"type":"Point"},"properties":{"id_projet":"COLLEGES (ann\u00e9e scolaire 2023\/2024)","libelle":"FRANCOISE SELIGMAN","adresse":"21 RUE DE SAMBRE ET MEUSE","arr_libelle":"10\u00e8me Ardt","arr_insee":75110,"annee_scol":"2023-2024","type_etabl":"Coll\u00e8ge","geo_point_2d":{"lon":2.371691242263032,"lat":48.87485079446566}}},{"type":"Feature","geometry":{"coordinates":[2.3423452396970905,48.8792307451151],"type":"Point"},"properties":{"id_projet":"COLLEGES (ann\u00e9e scolaire 2023\/2024)","libelle":"PAUL GAUGUIN","adresse":"35 RUE MILTON","arr_libelle":"9\u00e8me Ardt","arr_insee":75109,"annee_scol":"2023-2024","type_etabl":"Coll\u00e8ge","geo_point_2d":{"lon":2.3423452396970905,"lat":48.8792307451151}}},{"type":"Feature","geometry":{"coordinates":[2.3789595976766833,48.881293191571345],"type":"Point"},"properties":{"id_projet":"COLLEGES (ann\u00e9e scolaire 2023\/2024)","libelle":"EDOUARD PAILLERON","adresse":"35 RUE EDOUARD PAILLERON","arr_libelle":"19\u00e8me Ardt","arr_insee":75119,"annee_scol":"2023-2024","type_etabl":"Coll\u00e8ge","geo_point_2d":{"lon":2.3789595976766833,"lat":48.881293191571345}}},{"type":"Feature","geometry":{"coordinates":[2.3283199536449017,48.827730325591624],"type":"Point"},"properties":{"id_projet":"COLLEGES (ann\u00e9e scolaire 2023\/2024)","libelle":"JEAN MOULIN","adresse":"75 RUE D' ALESIA","arr_libelle":"14\u00e8me Ardt","arr_insee":75114,"annee_scol":"2023-2024","type_etabl":"Coll\u00e8ge","geo_point_2d":{"lon":2.3283199536449017,"lat":48.827730325591624}}},{"type":"Feature","geometry":{"coordinates":[2.328851213098646,48.84104135758076],"type":"Point"},"properties":{"id_projet":"COLLEGES (ann\u00e9e scolaire 2023\/2024)","libelle":"PAUL BERT","adresse":"8 RUE HUYGHENS","arr_libelle":"14\u00e8me Ardt","arr_insee":75114,"annee_scol":"2023-2024","type_etabl":"Coll\u00e8ge","geo_point_2d":{"lon":2.328851213098646,"lat":48.84104135758076}}},{"type":"Feature","geometry":{"coordinates":[2.3447564327292643,48.89820810689648],"type":"Point"},"properties":{"id_projet":"COLLEGES (ann\u00e9e scolaire 2023\/2024)","libelle":"MAURICE UTRILLO","adresse":"100 BOULEVARD NEY","arr_libelle":"18\u00e8me Ardt","arr_insee":75118,"annee_scol":"2023-2024","type_etabl":"Coll\u00e8ge","geo_point_2d":{"lon":2.3447564327292643,"lat":48.89820810689648}}},{"type":"Feature","geometry":{"coordinates":[2.3148479397647423,48.85230001233898],"type":"Point"},"properties":{"id_projet":"COLLEGES (ann\u00e9e scolaire 2023\/2024)","libelle":"VICTOR DURUY","adresse":"33 BOULEVARD DES INVALIDES","arr_libelle":"7\u00e8me Ardt","arr_insee":75107,"annee_scol":"2023-2024","type_etabl":"Coll\u00e8ge","geo_point_2d":{"lon":2.3148479397647423,"lat":48.85230001233898}}},{"type":"Feature","geometry":{"coordinates":[2.3423452396970905,48.8792307451151],"type":"Point"},"properties":{"id_projet":"COLLEGES (ann\u00e9e scolaire 2024\/2025)","libelle":"PAUL GAUGUIN","adresse":"35 RUE MILTON","arr_libelle":"9\u00e8me Ardt","arr_insee":75109,"annee_scol":"2024-2025","type_etabl":"Coll\u00e8ge","geo_point_2d":{"lon":2.3423452396970905,"lat":48.8792307451151}}},{"type":"Feature","geometry":{"coordinates":[2.3765366364279124,48.87628979019915],"type":"Point"},"properties":{"id_projet":"COLLEGES (ann\u00e9e scolaire 2024\/2025)","libelle":"CHARLES PEGUY","adresse":"69 AVENUE SIMON BOLIVAR","arr_libelle":"19\u00e8me Ardt","arr_insee":75119,"annee_scol":"2024-2025","type_etabl":"Coll\u00e8ge","geo_point_2d":{"lon":2.3765366364279124,"lat":48.87628979019915}}},{"type":"Feature","geometry":{"coordinates":[2.3623243534171525,48.827434468723496],"type":"Point"},"properties":{"id_projet":"COLLEGES (ann\u00e9e scolaire 2024\/2025)","libelle":"CLAUDE MONET","adresse":"1 RUE DU DOCTEUR MAGNAN","arr_libelle":"13\u00e8me Ardt","arr_insee":75113,"annee_scol":"2024-2025","type_etabl":"Coll\u00e8ge","geo_point_2d":{"lon":2.3623243534171525,"lat":48.827434468723496}}},{"type":"Feature","geometry":{"coordinates":[2.356278388990961,48.85505968002608],"type":"Point"},"properties":{"id_projet":"COLLEGES (ann\u00e9e scolaire 2024\/2025)","libelle":"FRANCOIS COUPERIN","adresse":"2 ALLEE DES JUSTES DE FRANCE","arr_libelle":"4\u00e8me Ardt","arr_insee":75104,"annee_scol":"2024-2025","type_etabl":"Coll\u00e8ge","geo_point_2d":{"lon":2.356278388990961,"lat":48.85505968002608}}},{"type":"Feature","geometry":{"coordinates":[2.376485834379865,48.89366655755415],"type":"Point"},"properties":{"id_projet":"COLLEGES (ann\u00e9e scolaire 2025\/2026)","libelle":"EDMOND MICHELET","adresse":"70 RUE DE L' OURCQ","arr_libelle":"19\u00e8me Ardt","arr_insee":75119,"annee_scol":"2025-2026","type_etabl":"Coll\u00e8ge","geo_point_2d":{"lon":2.376485834379865,"lat":48.89366655755415}}},{"type":"Feature","geometry":{"coordinates":[2.3259094075851534,48.82801240851196],"type":"Point"},"properties":{"id_projet":"COLLEGES (ann\u00e9e scolaire 2025\/2026)","libelle":"ALPHONSE DAUDET","adresse":"93 RUE D' ALESIA","arr_libelle":"14\u00e8me Ardt","arr_insee":75114,"annee_scol":"2025-2026","type_etabl":"Coll\u00e8ge","geo_point_2d":{"lon":2.3259094075851534,"lat":48.82801240851196}}},{"type":"Feature","geometry":{"coordinates":[2.3507358446303632,48.89334018854464],"type":"Point"},"properties":{"id_projet":"COLLEGES (ann\u00e9e scolaire 2025\/2026)","libelle":"MARIE CURIE","adresse":"23 RUE BOINOD","arr_libelle":"18\u00e8me Ardt","arr_insee":75118,"annee_scol":"2025-2026","type_etabl":"Coll\u00e8ge","geo_point_2d":{"lon":2.3507358446303632,"lat":48.89334018854464}}},{"type":"Feature","geometry":{"coordinates":[2.3423452396970905,48.8792307451151],"type":"Point"},"properties":{"id_projet":"COLLEGES (ann\u00e9e scolaire 2025\/2026)","libelle":"PAUL GAUGUIN","adresse":"35 RUE MILTON","arr_libelle":"9\u00e8me Ardt","arr_insee":75109,"annee_scol":"2025-2026","type_etabl":"Coll\u00e8ge","geo_point_2d":{"lon":2.3423452396970905,"lat":48.8792307451151}}},{"type":"Feature","geometry":{"coordinates":[2.3354369048459884,48.834349034877256],"type":"Point"},"properties":{"id_projet":"COLLEGES (ann\u00e9e scolaire 2025\/2026)","libelle":"ST EXUPERY","adresse":"89 BOULEVARD ARAGO","arr_libelle":"14\u00e8me Ardt","arr_insee":75114,"annee_scol":"2025-2026","type_etabl":"Coll\u00e8ge","geo_point_2d":{"lon":2.3354369048459884,"lat":48.834349034877256}}},{"type":"Feature","geometry":{"coordinates":[2.3527133607661415,48.82878642051567],"type":"Point"},"properties":{"id_projet":"COLLEGES (ann\u00e9e scolaire 2025\/2026)","libelle":"MOULIN DES PRES","adresse":"18 RUE DU MOULIN DES PRES","arr_libelle":"13\u00e8me Ardt","arr_insee":75113,"annee_scol":"2025-2026","type_etabl":"Coll\u00e8ge","geo_point_2d":{"lon":2.3527133607661415,"lat":48.82878642051567}}},{"type":"Feature","geometry":{"coordinates":[2.3642603834093108,48.865016990354505],"type":"Point"},"properties":{"id_projet":"COLLEGES (ann\u00e9e scolaire 2020\/2021)","libelle":"PIERRE JEAN DE BERANGER","adresse":"5 RUE BERANGER","arr_libelle":"3\u00e8me Ardt","arr_insee":75103,"annee_scol":"2020-2021","type_etabl":"Coll\u00e8ge","geo_point_2d":{"lon":2.3642603834093108,"lat":48.865016990354505}}},{"type":"Feature","geometry":{"coordinates":[2.3447564327292643,48.89820810689648],"type":"Point"},"properties":{"id_projet":"COLLEGES (ann\u00e9e scolaire 2020\/2021)","libelle":"MAURICE UTRILLO","adresse":"100 BOULEVARD NEY","arr_libelle":"18\u00e8me Ardt","arr_insee":75118,"annee_scol":"2020-2021","type_etabl":"Coll\u00e8ge","geo_point_2d":{"lon":2.3447564327292643,"lat":48.89820810689648}}},{"type":"Feature","geometry":{"coordinates":[2.3532818415788683,48.84827305751572],"type":"Point"},"properties":{"id_projet":"COLLEGES (ann\u00e9e scolaire 2020\/2021)","libelle":"ROGNONI","adresse":"24 RUE DU CARDINAL LEMOINE","arr_libelle":"5\u00e8me Ardt","arr_insee":75105,"annee_scol":"2020-2021","type_etabl":"Coll\u00e8ge","geo_point_2d":{"lon":2.3532818415788683,"lat":48.84827305751572}}},{"type":"Feature","geometry":{"coordinates":[2.387212273993633,48.851962677558625],"type":"Point"},"properties":{"id_projet":"COLLEGES (ann\u00e9e scolaire 2020\/2021)","libelle":"PILATRE DE ROZIER","adresse":"11 RUE BOUVIER","arr_libelle":"11\u00e8me Ardt","arr_insee":75111,"annee_scol":"2020-2021","type_etabl":"Coll\u00e8ge","geo_point_2d":{"lon":2.387212273993633,"lat":48.851962677558625}}},{"type":"Feature","geometry":{"coordinates":[2.272125246761933,48.85500051295463],"type":"Point"},"properties":{"id_projet":"COLLEGES (ann\u00e9e scolaire 2020\/2021)","libelle":"MOLIERE","adresse":"71 RUE DU RANELAGH","arr_libelle":"16\u00e8me Ardt","arr_insee":75116,"annee_scol":"2020-2021","type_etabl":"Coll\u00e8ge","geo_point_2d":{"lon":2.272125246761933,"lat":48.85500051295463}}},{"type":"Feature","geometry":{"coordinates":[2.411192015083835,48.85685261667771],"type":"Point"},"properties":{"id_projet":"COLLEGES (ann\u00e9e scolaire 2020\/2021)","libelle":"JEAN PERRIN","adresse":"6 RUE EUGENE REISZ","arr_libelle":"20\u00e8me Ardt","arr_insee":75120,"annee_scol":"2020-2021","type_etabl":"Coll\u00e8ge","geo_point_2d":{"lon":2.411192015083835,"lat":48.85685261667771}}},{"type":"Feature","geometry":{"coordinates":[2.377938859129365,48.82891771170081],"type":"Point"},"properties":{"id_projet":"COLLEGES (ann\u00e9e scolaire 2020\/2021)","libelle":"THOMAS MANN","adresse":"91 AVENUE DE FRANCE","arr_libelle":"13\u00e8me Ardt","arr_insee":75113,"annee_scol":"2020-2021","type_etabl":"Coll\u00e8ge","geo_point_2d":{"lon":2.377938859129365,"lat":48.82891771170081}}},{"type":"Feature","geometry":{"coordinates":[2.30723382524095,48.84264715695299],"type":"Point"},"properties":{"id_projet":"COLLEGES (ann\u00e9e scolaire 2021\/2022)","libelle":"GEORGES DUHAMEL","adresse":"13 RUE DES VOLONTAIRES","arr_libelle":"15\u00e8me Ardt","arr_insee":75115,"annee_scol":"2021-2022","type_etabl":"Coll\u00e8ge","geo_point_2d":{"lon":2.30723382524095,"lat":48.84264715695299}}},{"type":"Feature","geometry":{"coordinates":[2.3478620292642036,48.88824190894073],"type":"Point"},"properties":{"id_projet":"COLLEGES (ann\u00e9e scolaire 2021\/2022)","libelle":"ROLAND DORGELES","adresse":"63 RUE DE CLIGNANCOURT","arr_libelle":"18\u00e8me Ardt","arr_insee":75118,"annee_scol":"2021-2022","type_etabl":"Coll\u00e8ge","geo_point_2d":{"lon":2.3478620292642036,"lat":48.88824190894073}}},{"type":"Feature","geometry":{"coordinates":[2.3298201952433653,48.89161762679698],"type":"Point"},"properties":{"id_projet":"COLLEGES (ann\u00e9e scolaire 2021\/2022)","libelle":"ANTOINE COYSEVOX","adresse":"16 RUE COYSEVOX","arr_libelle":"18\u00e8me Ardt","arr_insee":75118,"annee_scol":"2021-2022","type_etabl":"Coll\u00e8ge","geo_point_2d":{"lon":2.3298201952433653,"lat":48.89161762679698}}},{"type":"Feature","geometry":{"coordinates":[2.3328455414566878,48.85473387190791],"type":"Point"},"properties":{"id_projet":"COLLEGES (ann\u00e9e scolaire 2021\/2022)","libelle":"JACQUES PREVERT","adresse":"18 RUE SAINT-BENOIT","arr_libelle":"6\u00e8me Ardt","arr_insee":75106,"annee_scol":"2021-2022","type_etabl":"Coll\u00e8ge","geo_point_2d":{"lon":2.3328455414566878,"lat":48.85473387190791}}},{"type":"Feature","geometry":{"coordinates":[2.3101706958480466,48.843618305404966],"type":"Point"},"properties":{"id_projet":"COLLEGES (ann\u00e9e scolaire 2021\/2022)","libelle":"MADAME DE STAEL","adresse":"14 RUE DE STAEL","arr_libelle":"15\u00e8me Ardt","arr_insee":75115,"annee_scol":"2021-2022","type_etabl":"Coll\u00e8ge","geo_point_2d":{"lon":2.3101706958480466,"lat":48.843618305404966}}},{"type":"Feature","geometry":{"coordinates":[2.3117175756846695,48.84345072823188],"type":"Point"},"properties":{"id_projet":"COLLEGES (ann\u00e9e scolaire 2021\/2022)","libelle":"BUFFON","adresse":"16 BOULEVARD PASTEUR","arr_libelle":"15\u00e8me Ardt","arr_insee":75115,"annee_scol":"2021-2022","type_etabl":"Coll\u00e8ge","geo_point_2d":{"lon":2.3117175756846695,"lat":48.84345072823188}}},{"type":"Feature","geometry":{"coordinates":[2.3546739157184287,48.83789635698398],"type":"Point"},"properties":{"id_projet":"COLLEGES (ann\u00e9e scolaire 2021\/2022)","libelle":"RAYMOND QUENEAU","adresse":"66 BOULEVARD SAINT-MARCEL","arr_libelle":"5\u00e8me Ardt","arr_insee":75105,"annee_scol":"2021-2022","type_etabl":"Coll\u00e8ge","geo_point_2d":{"lon":2.3546739157184287,"lat":48.83789635698398}}},{"type":"Feature","geometry":{"coordinates":[2.3423452396970905,48.8792307451151],"type":"Point"},"properties":{"id_projet":"COLLEGES (ann\u00e9e scolaire 2021\/2022)","libelle":"PAUL GAUGUIN","adresse":"35 RUE MILTON","arr_libelle":"9\u00e8me Ardt","arr_insee":75109,"annee_scol":"2021-2022","type_etabl":"Coll\u00e8ge","geo_point_2d":{"lon":2.3423452396970905,"lat":48.8792307451151}}},{"type":"Feature","geometry":{"coordinates":[2.282679643541085,48.8465711128111],"type":"Point"},"properties":{"id_projet":"COLLEGES (ann\u00e9e scolaire 2021\/2022)","libelle":"GUILLAUME APOLLINAIRE","adresse":"39 AVENUE EMILE ZOLA","arr_libelle":"15\u00e8me Ardt","arr_insee":75115,"annee_scol":"2021-2022","type_etabl":"Coll\u00e8ge","geo_point_2d":{"lon":2.282679643541085,"lat":48.8465711128111}}},{"type":"Feature","geometry":{"coordinates":[2.3669059641720596,48.864231545646064],"type":"Point"},"properties":{"id_projet":"COLLEGES (ann\u00e9e scolaire 2022\/2023)","libelle":"BEAUMARCHAIS","adresse":"124 RUE AMELOT","arr_libelle":"11\u00e8me Ardt","arr_insee":75111,"annee_scol":"2022-2023","type_etabl":"Coll\u00e8ge","geo_point_2d":{"lon":2.3669059641720596,"lat":48.864231545646064}}},{"type":"Feature","geometry":{"coordinates":[2.3990770619653667,48.88660919266352],"type":"Point"},"properties":{"id_projet":"COLLEGES (ann\u00e9e scolaire 2022\/2023)","libelle":"GEORGES ROUAULT","adresse":"3 RUE DU NOYER-DURAND","arr_libelle":"19\u00e8me Ardt","arr_insee":75119,"annee_scol":"2022-2023","type_etabl":"Coll\u00e8ge","geo_point_2d":{"lon":2.3990770619653667,"lat":48.88660919266352}}},{"type":"Feature","geometry":{"coordinates":[2.31497156179252,48.83426455206892],"type":"Point"},"properties":{"id_projet":"COLLEGES (ann\u00e9e scolaire 2022\/2023)","libelle":"ALBERTO GIACOMETTI","adresse":"7 RUE DU CANGE","arr_libelle":"14\u00e8me Ardt","arr_insee":75114,"annee_scol":"2022-2023","type_etabl":"Coll\u00e8ge","geo_point_2d":{"lon":2.31497156179252,"lat":48.83426455206892}}},{"type":"Feature","geometry":{"coordinates":[2.378040375653599,48.881137694884536],"type":"Point"},"properties":{"id_projet":"COLLEGES (ann\u00e9e scolaire 2023\/2024)","libelle":"HENRI BERGSON","adresse":"27 bis RUE EDOUARD PAILLERON","arr_libelle":"19\u00e8me Ardt","arr_insee":75119,"annee_scol":"2023-2024","type_etabl":"Coll\u00e8ge","geo_point_2d":{"lon":2.378040375653599,"lat":48.881137694884536}}},{"type":"Feature","geometry":{"coordinates":[2.375238551801449,48.84260745086261],"type":"Point"},"properties":{"id_projet":"COLLEGES (ann\u00e9e scolaire 2023\/2024)","libelle":"PAUL VERLAINE","adresse":"167 RUE DE BERCY","arr_libelle":"12\u00e8me Ardt","arr_insee":75112,"annee_scol":"2023-2024","type_etabl":"Coll\u00e8ge","geo_point_2d":{"lon":2.375238551801449,"lat":48.84260745086261}}},{"type":"Feature","geometry":{"coordinates":[2.3078439600154557,48.88447741020547],"type":"Point"},"properties":{"id_projet":"COLLEGES (ann\u00e9e scolaire 2023\/2024)","libelle":"CARNOT","adresse":"145 BOULEVARD MALESHERBES","arr_libelle":"17\u00e8me Ardt","arr_insee":75117,"annee_scol":"2023-2024","type_etabl":"Coll\u00e8ge","geo_point_2d":{"lon":2.3078439600154557,"lat":48.88447741020547}}},{"type":"Feature","geometry":{"coordinates":[2.3328455414566878,48.85473387190791],"type":"Point"},"properties":{"id_projet":"COLLEGES (ann\u00e9e scolaire 2023\/2024)","libelle":"JACQUES PREVERT","adresse":"18 RUE SAINT-BENOIT","arr_libelle":"6\u00e8me Ardt","arr_insee":75106,"annee_scol":"2023-2024","type_etabl":"Coll\u00e8ge","geo_point_2d":{"lon":2.3328455414566878,"lat":48.85473387190791}}},{"type":"Feature","geometry":{"coordinates":[2.406501323731271,48.85090897148368],"type":"Point"},"properties":{"id_projet":"COLLEGES (ann\u00e9e scolaire 2023\/2024)","libelle":"LUCIE FAURE","adresse":"40 RUE DES PYRENEES","arr_libelle":"20\u00e8me Ardt","arr_insee":75120,"annee_scol":"2023-2024","type_etabl":"Coll\u00e8ge","geo_point_2d":{"lon":2.406501323731271,"lat":48.85090897148368}}},{"type":"Feature","geometry":{"coordinates":[2.379036766249539,48.85192514675005],"type":"Point"},"properties":{"id_projet":"COLLEGES (ann\u00e9e scolaire 2023\/2024)","libelle":"ANNE FRANK","adresse":"38 RUE TROUSSEAU","arr_libelle":"11\u00e8me Ardt","arr_insee":75111,"annee_scol":"2023-2024","type_etabl":"Coll\u00e8ge","geo_point_2d":{"lon":2.379036766249539,"lat":48.85192514675005}}},{"type":"Feature","geometry":{"coordinates":[2.351945405253571,48.89445882794094],"type":"Point"},"properties":{"id_projet":"COLLEGES (ann\u00e9e scolaire 2023\/2024)","libelle":"GERARD PHILIPE","adresse":"8 RUE DES AMIRAUX","arr_libelle":"18\u00e8me Ardt","arr_insee":75118,"annee_scol":"2023-2024","type_etabl":"Coll\u00e8ge","geo_point_2d":{"lon":2.351945405253571,"lat":48.89445882794094}}},{"type":"Feature","geometry":{"coordinates":[2.3573979777840735,48.86669135689307],"type":"Point"},"properties":{"id_projet":"COLLEGES (ann\u00e9e scolaire 2024\/2025)","libelle":"MONTGOLFIER","adresse":"15 RUE MONTGOLFIER","arr_libelle":"3\u00e8me Ardt","arr_insee":75103,"annee_scol":"2024-2025","type_etabl":"Coll\u00e8ge","geo_point_2d":{"lon":2.3573979777840735,"lat":48.86669135689307}}},{"type":"Feature","geometry":{"coordinates":[2.3648627277329224,48.82064046139026],"type":"Point"},"properties":{"id_projet":"COLLEGES (ann\u00e9e scolaire 2024\/2025)","libelle":"CAMILLE CLAUDEL","adresse":"4 bis AVENUE DE CHOISY","arr_libelle":"13\u00e8me Ardt","arr_insee":75113,"annee_scol":"2024-2025","type_etabl":"Coll\u00e8ge","geo_point_2d":{"lon":2.3648627277329224,"lat":48.82064046139026}}},{"type":"Feature","geometry":{"coordinates":[2.401975118872313,48.85645682794513],"type":"Point"},"properties":{"id_projet":"COLLEGES (ann\u00e9e scolaire 2024\/2025)","libelle":"HENRI MATISSE","adresse":"3 RUE VITRUVE","arr_libelle":"20\u00e8me Ardt","arr_insee":75120,"annee_scol":"2024-2025","type_etabl":"Coll\u00e8ge","geo_point_2d":{"lon":2.401975118872313,"lat":48.85645682794513}}},{"type":"Feature","geometry":{"coordinates":[2.388586748411057,48.88915990325219],"type":"Point"},"properties":{"id_projet":"COLLEGES (ann\u00e9e scolaire 2024\/2025)","libelle":"EDGAR VARESE","adresse":"16 RUE ADOLPHE MILLE","arr_libelle":"19\u00e8me Ardt","arr_insee":75119,"annee_scol":"2024-2025","type_etabl":"Coll\u00e8ge","geo_point_2d":{"lon":2.388586748411057,"lat":48.88915990325219}}},{"type":"Feature","geometry":{"coordinates":[2.411192015083835,48.85685261667771],"type":"Point"},"properties":{"id_projet":"COLLEGES (ann\u00e9e scolaire 2024\/2025)","libelle":"JEAN PERRIN","adresse":"6 RUE EUGENE REISZ","arr_libelle":"20\u00e8me Ardt","arr_insee":75120,"annee_scol":"2024-2025","type_etabl":"Coll\u00e8ge","geo_point_2d":{"lon":2.411192015083835,"lat":48.85685261667771}}},{"type":"Feature","geometry":{"coordinates":[2.3447564327292643,48.89820810689648],"type":"Point"},"properties":{"id_projet":"COLLEGES (ann\u00e9e scolaire 2024\/2025)","libelle":"MAURICE UTRILLO","adresse":"100 BOULEVARD NEY","arr_libelle":"18\u00e8me Ardt","arr_insee":75118,"annee_scol":"2024-2025","type_etabl":"Coll\u00e8ge","geo_point_2d":{"lon":2.3447564327292643,"lat":48.89820810689648}}},{"type":"Feature","geometry":{"coordinates":[2.319687602583127,48.88173758353143],"type":"Point"},"properties":{"id_projet":"COLLEGES (ann\u00e9e scolaire 2024\/2025)","libelle":"CHAPTAL","adresse":"45 BOULEVARD DES BATIGNOLLES","arr_libelle":"8\u00e8me Ardt","arr_insee":75108,"annee_scol":"2024-2025","type_etabl":"Coll\u00e8ge","geo_point_2d":{"lon":2.319687602583127,"lat":48.88173758353143}}},{"type":"Feature","geometry":{"coordinates":[2.3348321149353644,48.844237396416126],"type":"Point"},"properties":{"id_projet":"COLLEGES (ann\u00e9e scolaire 2024\/2025)","libelle":"MONTAIGNE","adresse":"17 RUE AUGUSTE COMTE","arr_libelle":"6\u00e8me Ardt","arr_insee":75106,"annee_scol":"2024-2025","type_etabl":"Coll\u00e8ge","geo_point_2d":{"lon":2.3348321149353644,"lat":48.844237396416126}}},{"type":"Feature","geometry":{"coordinates":[2.3849235011315018,48.86642227484253],"type":"Point"},"properties":{"id_projet":"COLLEGES (ann\u00e9e scolaire 2025\/2026)","libelle":"COLETTE BESSON","adresse":"9 RUE DES PANOYAUX","arr_libelle":"20\u00e8me Ardt","arr_insee":75120,"annee_scol":"2025-2026","type_etabl":"Coll\u00e8ge","geo_point_2d":{"lon":2.3849235011315018,"lat":48.86642227484253}}},{"type":"Feature","geometry":{"coordinates":[2.347383672470346,48.846358092872286],"type":"Point"},"properties":{"id_projet":"COLLEGES (ann\u00e9e scolaire 2025\/2026)","libelle":"HENRI IV","adresse":"23 RUE CLOVIS","arr_libelle":"5\u00e8me Ardt","arr_insee":75105,"annee_scol":"2025-2026","type_etabl":"Coll\u00e8ge","geo_point_2d":{"lon":2.347383672470346,"lat":48.846358092872286}}},{"type":"Feature","geometry":{"coordinates":[2.4083375178390534,48.84767113661859],"type":"Point"},"properties":{"id_projet":"COLLEGES (ann\u00e9e scolaire 2025\/2026)","libelle":"MAURICE RAVEL","adresse":"89 COURS DE VINCENNES","arr_libelle":"20\u00e8me Ardt","arr_insee":75120,"annee_scol":"2025-2026","type_etabl":"Coll\u00e8ge","geo_point_2d":{"lon":2.4083375178390534,"lat":48.84767113661859}}},{"type":"Feature","geometry":{"coordinates":[2.379308212552385,48.88957595365006],"type":"Point"},"properties":{"id_projet":"COLLEGES (ann\u00e9e scolaire 2025\/2026)","libelle":"MOZART","adresse":"7 RUE JOMARD","arr_libelle":"19\u00e8me Ardt","arr_insee":75119,"annee_scol":"2025-2026","type_etabl":"Coll\u00e8ge","geo_point_2d":{"lon":2.379308212552385,"lat":48.88957595365006}}},{"type":"Feature","geometry":{"coordinates":[2.3573979777840735,48.86669135689307],"type":"Point"},"properties":{"id_projet":"COLLEGES (ann\u00e9e scolaire 2025\/2026)","libelle":"MONTGOLFIER","adresse":"15 RUE MONTGOLFIER","arr_libelle":"3\u00e8me Ardt","arr_insee":75103,"annee_scol":"2025-2026","type_etabl":"Coll\u00e8ge","geo_point_2d":{"lon":2.3573979777840735,"lat":48.86669135689307}}},{"type":"Feature","geometry":{"coordinates":[2.3348321149353644,48.844237396416126],"type":"Point"},"properties":{"id_projet":"COLLEGES (ann\u00e9e scolaire 2025\/2026)","libelle":"MONTAIGNE","adresse":"17 RUE AUGUSTE COMTE","arr_libelle":"6\u00e8me Ardt","arr_insee":75106,"annee_scol":"2025-2026","type_etabl":"Coll\u00e8ge","geo_point_2d":{"lon":2.3348321149353644,"lat":48.844237396416126}}},{"type":"Feature","geometry":{"coordinates":[2.31497156179252,48.83426455206892],"type":"Point"},"properties":{"id_projet":"COLLEGES (ann\u00e9e scolaire 2025\/2026)","libelle":"ALBERTO GIACOMETTI","adresse":"7 RUE DU CANGE","arr_libelle":"14\u00e8me Ardt","arr_insee":75114,"annee_scol":"2025-2026","type_etabl":"Coll\u00e8ge","geo_point_2d":{"lon":2.31497156179252,"lat":48.83426455206892}}},{"type":"Feature","geometry":{"coordinates":[2.3478620292642036,48.88824190894073],"type":"Point"},"properties":{"id_projet":"COLLEGES (ann\u00e9e scolaire 2020\/2021)","libelle":"ROLAND DORGELES","adresse":"63 RUE DE CLIGNANCOURT","arr_libelle":"18\u00e8me Ardt","arr_insee":75118,"annee_scol":"2020-2021","type_etabl":"Coll\u00e8ge","geo_point_2d":{"lon":2.3478620292642036,"lat":48.88824190894073}}},{"type":"Feature","geometry":{"coordinates":[2.385349731136482,48.877493391773086],"type":"Point"},"properties":{"id_projet":"COLLEGES (ann\u00e9e scolaire 2020\/2021)","libelle":"CLAUDE CHAPPE","adresse":"9 RUE DES ALOUETTES","arr_libelle":"19\u00e8me Ardt","arr_insee":75119,"annee_scol":"2020-2021","type_etabl":"Coll\u00e8ge","geo_point_2d":{"lon":2.385349731136482,"lat":48.877493391773086}}},{"type":"Feature","geometry":{"coordinates":[2.411159984926502,48.86805832906415],"type":"Point"},"properties":{"id_projet":"COLLEGES (ann\u00e9e scolaire 2020\/2021)","libelle":"PIERRE MENDES FRANCE","adresse":"24 RUE LE VAU","arr_libelle":"20\u00e8me Ardt","arr_insee":75120,"annee_scol":"2020-2021","type_etabl":"Coll\u00e8ge","geo_point_2d":{"lon":2.411159984926502,"lat":48.86805832906415}}},{"type":"Feature","geometry":{"coordinates":[2.3636082456277463,48.872309051411165],"type":"Point"},"properties":{"id_projet":"COLLEGES (ann\u00e9e scolaire 2020\/2021)","libelle":"LOUISE MICHEL","adresse":"11 RUE JEAN POULMARCH","arr_libelle":"10\u00e8me Ardt","arr_insee":75110,"annee_scol":"2020-2021","type_etabl":"Coll\u00e8ge","geo_point_2d":{"lon":2.3636082456277463,"lat":48.872309051411165}}},{"type":"Feature","geometry":{"coordinates":[2.3614072621205247,48.82404489633227],"type":"Point"},"properties":{"id_projet":"COLLEGES (ann\u00e9e scolaire 2020\/2021)","libelle":"GABRIEL FAURE","adresse":"81 AVENUE DE CHOISY","arr_libelle":"13\u00e8me Ardt","arr_insee":75113,"annee_scol":"2020-2021","type_etabl":"Coll\u00e8ge","geo_point_2d":{"lon":2.3614072621205247,"lat":48.82404489633227}}},{"type":"Feature","geometry":{"coordinates":[2.371691242263032,48.87485079446566],"type":"Point"},"properties":{"id_projet":"COLLEGES (ann\u00e9e scolaire 2021\/2022)","libelle":"FRANCOISE SELIGMAN","adresse":"21 RUE DE SAMBRE-ET-MEUSE","arr_libelle":"10\u00e8me Ardt","arr_insee":75110,"annee_scol":"2021-2022","type_etabl":"Coll\u00e8ge","geo_point_2d":{"lon":2.371691242263032,"lat":48.87485079446566}}},{"type":"Feature","geometry":{"coordinates":[2.4083375178390534,48.84767113661859],"type":"Point"},"properties":{"id_projet":"COLLEGES (ann\u00e9e scolaire 2021\/2022)","libelle":"MAURICE RAVEL","adresse":"89 COURS DE VINCENNES","arr_libelle":"20\u00e8me Ardt","arr_insee":75120,"annee_scol":"2021-2022","type_etabl":"Coll\u00e8ge","geo_point_2d":{"lon":2.4083375178390534,"lat":48.84767113661859}}},{"type":"Feature","geometry":{"coordinates":[2.4091790646003752,48.83984209312885],"type":"Point"},"properties":{"id_projet":"COLLEGES (ann\u00e9e scolaire 2021\/2022)","libelle":"PAUL VALERY","adresse":"38 BOULEVARD SOULT","arr_libelle":"12\u00e8me Ardt","arr_insee":75112,"annee_scol":"2021-2022","type_etabl":"Coll\u00e8ge","geo_point_2d":{"lon":2.4091790646003752,"lat":48.83984209312885}}},{"type":"Feature","geometry":{"coordinates":[2.3614072621205247,48.82404489633227],"type":"Point"},"properties":{"id_projet":"COLLEGES (ann\u00e9e scolaire 2021\/2022)","libelle":"GABRIEL FAURE","adresse":"81 AVENUE DE CHOISY","arr_libelle":"13\u00e8me Ardt","arr_insee":75113,"annee_scol":"2021-2022","type_etabl":"Coll\u00e8ge","geo_point_2d":{"lon":2.3614072621205247,"lat":48.82404489633227}}},{"type":"Feature","geometry":{"coordinates":[2.3626597620602254,48.82496991497496],"type":"Point"},"properties":{"id_projet":"COLLEGES (ann\u00e9e scolaire 2021\/2022)","libelle":"GUSTAVE FLAUBERT","adresse":"82 AVENUE D' IVRY","arr_libelle":"13\u00e8me Ardt","arr_insee":75113,"annee_scol":"2021-2022","type_etabl":"Coll\u00e8ge","geo_point_2d":{"lon":2.3626597620602254,"lat":48.82496991497496}}},{"type":"Feature","geometry":{"coordinates":[2.411159984926502,48.86805832906415],"type":"Point"},"properties":{"id_projet":"COLLEGES (ann\u00e9e scolaire 2021\/2022)","libelle":"PIERRE MENDES FRANCE","adresse":"24 RUE LE VAU","arr_libelle":"20\u00e8me Ardt","arr_insee":75120,"annee_scol":"2021-2022","type_etabl":"Coll\u00e8ge","geo_point_2d":{"lon":2.411159984926502,"lat":48.86805832906415}}},{"type":"Feature","geometry":{"coordinates":[2.359697412102091,48.888496875091114],"type":"Point"},"properties":{"id_projet":"COLLEGES (ann\u00e9e scolaire 2021\/2022)","libelle":"MARX DORMOY","adresse":"55 RUE MARX DORMOY","arr_libelle":"18\u00e8me Ardt","arr_insee":75118,"annee_scol":"2021-2022","type_etabl":"Coll\u00e8ge","geo_point_2d":{"lon":2.359697412102091,"lat":48.888496875091114}}},{"type":"Feature","geometry":{"coordinates":[2.388586748411057,48.88915990325219],"type":"Point"},"properties":{"id_projet":"COLLEGES (ann\u00e9e scolaire 2021\/2022)","libelle":"EDGAR VARESE","adresse":"16 RUE ADOLPHE MILLE","arr_libelle":"19\u00e8me Ardt","arr_insee":75119,"annee_scol":"2021-2022","type_etabl":"Coll\u00e8ge","geo_point_2d":{"lon":2.388586748411057,"lat":48.88915990325219}}},{"type":"Feature","geometry":{"coordinates":[2.3573979777840735,48.86669135689307],"type":"Point"},"properties":{"id_projet":"COLLEGES (ann\u00e9e scolaire 2021\/2022)","libelle":"MONTGOLFIER","adresse":"15 RUE MONTGOLFIER","arr_libelle":"3\u00e8me Ardt","arr_insee":75103,"annee_scol":"2021-2022","type_etabl":"Coll\u00e8ge","geo_point_2d":{"lon":2.3573979777840735,"lat":48.86669135689307}}},{"type":"Feature","geometry":{"coordinates":[2.378040375653599,48.881137694884536],"type":"Point"},"properties":{"id_projet":"COLLEGES (ann\u00e9e scolaire 2022\/2023)","libelle":"HENRI BERGSON","adresse":"27 bis RUE EDOUARD PAILLERON","arr_libelle":"19\u00e8me Ardt","arr_insee":75119,"annee_scol":"2022-2023","type_etabl":"Coll\u00e8ge","geo_point_2d":{"lon":2.378040375653599,"lat":48.881137694884536}}},{"type":"Feature","geometry":{"coordinates":[2.272125246761933,48.85500051295463],"type":"Point"},"properties":{"id_projet":"COLLEGES (ann\u00e9e scolaire 2022\/2023)","libelle":"MOLIERE","adresse":"71 RUE DU RANELAGH","arr_libelle":"16\u00e8me Ardt","arr_insee":75116,"annee_scol":"2022-2023","type_etabl":"Coll\u00e8ge","geo_point_2d":{"lon":2.272125246761933,"lat":48.85500051295463}}},{"type":"Feature","geometry":{"coordinates":[2.3703616254082545,48.88807096328259],"type":"Point"},"properties":{"id_projet":"COLLEGES (ann\u00e9e scolaire 2023\/2024)","libelle":"GEORGES MELIES","adresse":"43 RUE DE TANGER","arr_libelle":"19\u00e8me Ardt","arr_insee":75119,"annee_scol":"2023-2024","type_etabl":"Coll\u00e8ge","geo_point_2d":{"lon":2.3703616254082545,"lat":48.88807096328259}}},{"type":"Feature","geometry":{"coordinates":[2.3546739157184287,48.83789635698398],"type":"Point"},"properties":{"id_projet":"COLLEGES (ann\u00e9e scolaire 2023\/2024)","libelle":"RAYMOND QUENEAU","adresse":"66 BOULEVARD SAINT-MARCEL","arr_libelle":"5\u00e8me Ardt","arr_insee":75105,"annee_scol":"2023-2024","type_etabl":"Coll\u00e8ge","geo_point_2d":{"lon":2.3546739157184287,"lat":48.83789635698398}}},{"type":"Feature","geometry":{"coordinates":[2.3614072621205247,48.82404489633227],"type":"Point"},"properties":{"id_projet":"COLLEGES (ann\u00e9e scolaire 2023\/2024)","libelle":"GABRIEL FAURE","adresse":"81 AVENUE DE CHOISY","arr_libelle":"13\u00e8me Ardt","arr_insee":75113,"annee_scol":"2023-2024","type_etabl":"Coll\u00e8ge","geo_point_2d":{"lon":2.3614072621205247,"lat":48.82404489633227}}},{"type":"Feature","geometry":{"coordinates":[2.2785902524445145,48.838859569842995],"type":"Point"},"properties":{"id_projet":"COLLEGES (ann\u00e9e scolaire 2023\/2024)","libelle":"ANDRE CITROEN","adresse":"208 RUE SAINT-CHARLES","arr_libelle":"15\u00e8me Ardt","arr_insee":75115,"annee_scol":"2023-2024","type_etabl":"Coll\u00e8ge","geo_point_2d":{"lon":2.2785902524445145,"lat":48.838859569842995}}},{"type":"Feature","geometry":{"coordinates":[2.3259094075851534,48.82801240851196],"type":"Point"},"properties":{"id_projet":"COLLEGES (ann\u00e9e scolaire 2023\/2024)","libelle":"ALPHONSE DAUDET","adresse":"93 RUE D' ALESIA","arr_libelle":"14\u00e8me Ardt","arr_insee":75114,"annee_scol":"2023-2024","type_etabl":"Coll\u00e8ge","geo_point_2d":{"lon":2.3259094075851534,"lat":48.82801240851196}}},{"type":"Feature","geometry":{"coordinates":[2.4083375178390534,48.84767113661859],"type":"Point"},"properties":{"id_projet":"COLLEGES (ann\u00e9e scolaire 2023\/2024)","libelle":"MAURICE RAVEL","adresse":"89 COURS DE VINCENNES","arr_libelle":"20\u00e8me Ardt","arr_insee":75120,"annee_scol":"2023-2024","type_etabl":"Coll\u00e8ge","geo_point_2d":{"lon":2.4083375178390534,"lat":48.84767113661859}}},{"type":"Feature","geometry":{"coordinates":[2.358378714817569,48.81844173613279],"type":"Point"},"properties":{"id_projet":"COLLEGES (ann\u00e9e scolaire 2024\/2025)","libelle":"EVARISTE GALOIS","adresse":"11 RUE DU DOCTEUR BOURNEVILLE","arr_libelle":"13\u00e8me Ardt","arr_insee":75113,"annee_scol":"2024-2025","type_etabl":"Coll\u00e8ge","geo_point_2d":{"lon":2.358378714817569,"lat":48.81844173613279}}},{"type":"Feature","geometry":{"coordinates":[2.363861812299952,48.893141293813464],"type":"Point"},"properties":{"id_projet":"COLLEGES (ann\u00e9e scolaire 2024\/2025)","libelle":"DANIEL MAYER","adresse":"2 PLACE HEBERT","arr_libelle":"18\u00e8me Ardt","arr_insee":75118,"annee_scol":"2024-2025","type_etabl":"Coll\u00e8ge","geo_point_2d":{"lon":2.363861812299952,"lat":48.893141293813464}}},{"type":"Feature","geometry":{"coordinates":[2.374321375328781,48.86823413928675],"type":"Point"},"properties":{"id_projet":"COLLEGES (ann\u00e9e scolaire 2024\/2025)","libelle":"LUCIE ET RAYMOND AUBRAC","adresse":"62 RUE DE LA FONTAINE AU ROI","arr_libelle":"11\u00e8me Ardt","arr_insee":75111,"annee_scol":"2024-2025","type_etabl":"Coll\u00e8ge","geo_point_2d":{"lon":2.374321375328781,"lat":48.86823413928675}}},{"type":"Feature","geometry":{"coordinates":[2.375238551801449,48.84260745086261],"type":"Point"},"properties":{"id_projet":"COLLEGES (ann\u00e9e scolaire 2024\/2025)","libelle":"PAUL VERLAINE","adresse":"167 RUE DE BERCY","arr_libelle":"12\u00e8me Ardt","arr_insee":75112,"annee_scol":"2024-2025","type_etabl":"Coll\u00e8ge","geo_point_2d":{"lon":2.375238551801449,"lat":48.84260745086261}}},{"type":"Feature","geometry":{"coordinates":[2.3941783022137617,48.8375505143775],"type":"Point"},"properties":{"id_projet":"COLLEGES (ann\u00e9e scolaire 2024\/2025)","libelle":"JULES VERNE","adresse":"20 RUE DE LA BRECHE AUX LOUPS","arr_libelle":"12\u00e8me Ardt","arr_insee":75112,"annee_scol":"2024-2025","type_etabl":"Coll\u00e8ge","geo_point_2d":{"lon":2.3941783022137617,"lat":48.8375505143775}}},{"type":"Feature","geometry":{"coordinates":[2.3078439600154557,48.88447741020547],"type":"Point"},"properties":{"id_projet":"COLLEGES (ann\u00e9e scolaire 2025\/2026)","libelle":"CARNOT","adresse":"145 BOULEVARD MALESHERBES","arr_libelle":"17\u00e8me Ardt","arr_insee":75117,"annee_scol":"2025-2026","type_etabl":"Coll\u00e8ge","geo_point_2d":{"lon":2.3078439600154557,"lat":48.88447741020547}}},{"type":"Feature","geometry":{"coordinates":[2.335488361254741,48.86465286301919],"type":"Point"},"properties":{"id_projet":"COLLEGES (ann\u00e9e scolaire 2025\/2026)","libelle":"JEAN-BAPTISTE POQUELIN","adresse":"6 RUE MOLIERE","arr_libelle":"1er Ardt","arr_insee":75101,"annee_scol":"2025-2026","type_etabl":"Coll\u00e8ge","geo_point_2d":{"lon":2.335488361254741,"lat":48.86465286301919}}},{"type":"Feature","geometry":{"coordinates":[2.3863943215388685,48.88433022802427],"type":"Point"},"properties":{"id_projet":"COLLEGES (ann\u00e9e scolaire 2025\/2026)","libelle":"GEORGES BRASSENS","adresse":"4 RUE ERIK SATIE","arr_libelle":"19\u00e8me Ardt","arr_insee":75119,"annee_scol":"2025-2026","type_etabl":"Coll\u00e8ge","geo_point_2d":{"lon":2.3863943215388685,"lat":48.88433022802427}}},{"type":"Feature","geometry":{"coordinates":[2.2969840321284276,48.84299079681964],"type":"Point"},"properties":{"id_projet":"COLLEGES (ann\u00e9e scolaire 2025\/2026)","libelle":"CAMILLE SEE","adresse":"11 RUE LEON LHERMITTE","arr_libelle":"15\u00e8me Ardt","arr_insee":75115,"annee_scol":"2025-2026","type_etabl":"Coll\u00e8ge","geo_point_2d":{"lon":2.2969840321284276,"lat":48.84299079681964}}},{"type":"Feature","geometry":{"coordinates":[2.3298201952433653,48.89161762679698],"type":"Point"},"properties":{"id_projet":"COLLEGES (ann\u00e9e scolaire 2025\/2026)","libelle":"ANTOINE COYSEVOX","adresse":"16 RUE COYSEVOX","arr_libelle":"18\u00e8me Ardt","arr_insee":75118,"annee_scol":"2025-2026","type_etabl":"Coll\u00e8ge","geo_point_2d":{"lon":2.3298201952433653,"lat":48.89161762679698}}},{"type":"Feature","geometry":{"coordinates":[2.401975118872313,48.85645682794513],"type":"Point"},"properties":{"id_projet":"COLLEGES (ann\u00e9e scolaire 2025\/2026)","libelle":"HENRI MATISSE","adresse":"3 RUE VITRUVE","arr_libelle":"20\u00e8me Ardt","arr_insee":75120,"annee_scol":"2025-2026","type_etabl":"Coll\u00e8ge","geo_point_2d":{"lon":2.401975118872313,"lat":48.85645682794513}}},{"type":"Feature","geometry":{"coordinates":[2.3642603834093108,48.865016990354505],"type":"Point"},"properties":{"id_projet":"COLLEGES (ann\u00e9e scolaire 2025\/2026)","libelle":"PIERRE JEAN DE BERANGER","adresse":"5 RUE BERANGER","arr_libelle":"3\u00e8me Ardt","arr_insee":75103,"annee_scol":"2025-2026","type_etabl":"Coll\u00e8ge","geo_point_2d":{"lon":2.3642603834093108,"lat":48.865016990354505}}},{"type":"Feature","geometry":{"coordinates":[2.386162996918993,48.84830590580039],"type":"Point"},"properties":{"id_projet":"COLLEGES (ann\u00e9e scolaire 2020\/2021)","libelle":"JEAN FRANCOIS OEBEN","adresse":"23 RUE DE REUILLY","arr_libelle":"12\u00e8me Ardt","arr_insee":75112,"annee_scol":"2020-2021","type_etabl":"Coll\u00e8ge","geo_point_2d":{"lon":2.386162996918993,"lat":48.84830590580039}}},{"type":"Feature","geometry":{"coordinates":[2.3941783022137617,48.8375505143775],"type":"Point"},"properties":{"id_projet":"COLLEGES (ann\u00e9e scolaire 2020\/2021)","libelle":"JULES VERNE","adresse":"20 RUE DE LA BRECHE AUX LOUPS","arr_libelle":"12\u00e8me Ardt","arr_insee":75112,"annee_scol":"2020-2021","type_etabl":"Coll\u00e8ge","geo_point_2d":{"lon":2.3941783022137617,"lat":48.8375505143775}}},{"type":"Feature","geometry":{"coordinates":[2.3047394660611222,48.83170273369949],"type":"Point"},"properties":{"id_projet":"COLLEGES (ann\u00e9e scolaire 2020\/2021)","libelle":"AMEDEO MODIGLIANI","adresse":"1 RUE DE CHERBOURG","arr_libelle":"15\u00e8me Ardt","arr_insee":75115,"annee_scol":"2020-2021","type_etabl":"Coll\u00e8ge","geo_point_2d":{"lon":2.3047394660611222,"lat":48.83170273369949}}},{"type":"Feature","geometry":{"coordinates":[2.363067598532842,48.8895947927362],"type":"Point"},"properties":{"id_projet":"COLLEGES (ann\u00e9e scolaire 2020\/2021)","libelle":"AIME CESAIRE","adresse":"22 RUE PAJOL","arr_libelle":"18\u00e8me Ardt","arr_insee":75118,"annee_scol":"2020-2021","type_etabl":"Coll\u00e8ge","geo_point_2d":{"lon":2.363067598532842,"lat":48.8895947927362}}},{"type":"Feature","geometry":{"coordinates":[2.363861812299952,48.893141293813464],"type":"Point"},"properties":{"id_projet":"COLLEGES (ann\u00e9e scolaire 2020\/2021)","libelle":"DANIEL MAYER","adresse":"2 PLACE HEBERT","arr_libelle":"18\u00e8me Ardt","arr_insee":75118,"annee_scol":"2020-2021","type_etabl":"Coll\u00e8ge","geo_point_2d":{"lon":2.363861812299952,"lat":48.893141293813464}}},{"type":"Feature","geometry":{"coordinates":[2.3558852290755237,48.82601379702334],"type":"Point"},"properties":{"id_projet":"COLLEGES (ann\u00e9e scolaire 2021\/2022)","libelle":"GEORGE SAND","adresse":"159 RUE DE TOLBIAC","arr_libelle":"13\u00e8me Ardt","arr_insee":75113,"annee_scol":"2021-2022","type_etabl":"Coll\u00e8ge","geo_point_2d":{"lon":2.3558852290755237,"lat":48.82601379702334}}},{"type":"Feature","geometry":{"coordinates":[2.3527133607661415,48.82878642051567],"type":"Point"},"properties":{"id_projet":"COLLEGES (ann\u00e9e scolaire 2021\/2022)","libelle":"MOULIN DES PRES","adresse":"18 RUE DU MOULIN DES PRES","arr_libelle":"13\u00e8me Ardt","arr_insee":75113,"annee_scol":"2021-2022","type_etabl":"Coll\u00e8ge","geo_point_2d":{"lon":2.3527133607661415,"lat":48.82878642051567}}},{"type":"Feature","geometry":{"coordinates":[2.366634856571281,48.87798501995133],"type":"Point"},"properties":{"id_projet":"COLLEGES (ann\u00e9e scolaire 2021\/2022)","libelle":"LA GRANGE AUX BELLES","adresse":"158 QUAI DE JEMMAPES","arr_libelle":"10\u00e8me Ardt","arr_insee":75110,"annee_scol":"2021-2022","type_etabl":"Coll\u00e8ge","geo_point_2d":{"lon":2.366634856571281,"lat":48.87798501995133}}},{"type":"Feature","geometry":{"coordinates":[2.3148479397647423,48.85230001233898],"type":"Point"},"properties":{"id_projet":"COLLEGES (ann\u00e9e scolaire 2021\/2022)","libelle":"VICTOR DURUY","adresse":"33 BOULEVARD DES INVALIDES","arr_libelle":"7\u00e8me Ardt","arr_insee":75107,"annee_scol":"2021-2022","type_etabl":"Coll\u00e8ge","geo_point_2d":{"lon":2.3148479397647423,"lat":48.85230001233898}}},{"type":"Feature","geometry":{"coordinates":[2.376485834379865,48.89366655755415],"type":"Point"},"properties":{"id_projet":"COLLEGES (ann\u00e9e scolaire 2021\/2022)","libelle":"EDMOND MICHELET","adresse":"70 RUE DE L' OURCQ","arr_libelle":"19\u00e8me Ardt","arr_insee":75119,"annee_scol":"2021-2022","type_etabl":"Coll\u00e8ge","geo_point_2d":{"lon":2.376485834379865,"lat":48.89366655755415}}},{"type":"Feature","geometry":{"coordinates":[2.3442026798992033,48.86535583739994],"type":"Point"},"properties":{"id_projet":"COLLEGES (ann\u00e9e scolaire 2021\/2022)","libelle":"CESAR FRANCK","adresse":"5 RUE DE LA JUSSIENNE","arr_libelle":"2\u00e8me Ardt","arr_insee":75102,"annee_scol":"2021-2022","type_etabl":"Coll\u00e8ge","geo_point_2d":{"lon":2.3442026798992033,"lat":48.86535583739994}}},{"type":"Feature","geometry":{"coordinates":[2.3176935384015067,48.87881482865127],"type":"Point"},"properties":{"id_projet":"COLLEGES (ann\u00e9e scolaire 2021\/2022)","libelle":"OCTAVE GREARD","adresse":"28 RUE DU GENERAL FOY","arr_libelle":"8\u00e8me Ardt","arr_insee":75108,"annee_scol":"2021-2022","type_etabl":"Coll\u00e8ge","geo_point_2d":{"lon":2.3176935384015067,"lat":48.87881482865127}}},{"type":"Feature","geometry":{"coordinates":[2.335488361254741,48.86465286301919],"type":"Point"},"properties":{"id_projet":"COLLEGES (ann\u00e9e scolaire 2021\/2022)","libelle":"JEAN-BAPTISTE POQUELIN","adresse":"6 RUE MOLIERE","arr_libelle":"1er Ardt","arr_insee":75101,"annee_scol":"2021-2022","type_etabl":"Coll\u00e8ge","geo_point_2d":{"lon":2.335488361254741,"lat":48.86465286301919}}},{"type":"Feature","geometry":{"coordinates":[2.311717565640409,48.8874299696971],"type":"Point"},"properties":{"id_projet":"COLLEGES (ann\u00e9e scolaire 2021\/2022)","libelle":"ROSE BLANCHE","adresse":"101 RUE DE SAUSSURE","arr_libelle":"17\u00e8me Ardt","arr_insee":75117,"annee_scol":"2021-2022","type_etabl":"Coll\u00e8ge","geo_point_2d":{"lon":2.311717565640409,"lat":48.8874299696971}}},{"type":"Feature","geometry":{"coordinates":[2.267323661986637,48.847305414456955],"type":"Point"},"properties":{"id_projet":"COLLEGES (ann\u00e9e scolaire 2021\/2022)","libelle":"JEAN-BAPTISTE SAY","adresse":"11 bis RUE D' AUTEUIL","arr_libelle":"16\u00e8me Ardt","arr_insee":75116,"annee_scol":"2021-2022","type_etabl":"Coll\u00e8ge","geo_point_2d":{"lon":2.267323661986637,"lat":48.847305414456955}}},{"type":"Feature","geometry":{"coordinates":[2.35285899572182,48.87746346177602],"type":"Point"},"properties":{"id_projet":"COLLEGES (ann\u00e9e scolaire 2022\/2023)","libelle":"BERNARD PALISSY","adresse":"21 RUE DES PETITS HOTELS","arr_libelle":"10\u00e8me Ardt","arr_insee":75110,"annee_scol":"2022-2023","type_etabl":"Coll\u00e8ge","geo_point_2d":{"lon":2.35285899572182,"lat":48.87746346177602}}},{"type":"Feature","geometry":{"coordinates":[2.319687602583127,48.88173758353143],"type":"Point"},"properties":{"id_projet":"COLLEGES (ann\u00e9e scolaire 2022\/2023)","libelle":"CHAPTAL","adresse":"45 BOULEVARD DES BATIGNOLLES","arr_libelle":"8\u00e8me Ardt","arr_insee":75108,"annee_scol":"2022-2023","type_etabl":"Coll\u00e8ge","geo_point_2d":{"lon":2.319687602583127,"lat":48.88173758353143}}},{"type":"Feature","geometry":{"coordinates":[2.3845254514835212,48.86352557226195],"type":"Point"},"properties":{"id_projet":"COLLEGES (ann\u00e9e scolaire 2022\/2023)","libelle":"VOLTAIRE","adresse":"101 AVENUE DE LA REPUBLIQUE","arr_libelle":"11\u00e8me Ardt","arr_insee":75111,"annee_scol":"2022-2023","type_etabl":"Coll\u00e8ge","geo_point_2d":{"lon":2.3845254514835212,"lat":48.86352557226195}}},{"type":"Feature","geometry":{"coordinates":[2.3642603834093108,48.865016990354505],"type":"Point"},"properties":{"id_projet":"COLLEGES (ann\u00e9e scolaire 2022\/2023)","libelle":"PIERRE JEAN DE BERANGER","adresse":"5 RUE BERANGER","arr_libelle":"3\u00e8me Ardt","arr_insee":75103,"annee_scol":"2022-2023","type_etabl":"Coll\u00e8ge","geo_point_2d":{"lon":2.3642603834093108,"lat":48.865016990354505}}},{"type":"Feature","geometry":{"coordinates":[2.359697412102091,48.888496875091114],"type":"Point"},"properties":{"id_projet":"COLLEGES (ann\u00e9e scolaire 2022\/2023)","libelle":"MARX DORMOY","adresse":"55 RUE MARX DORMOY","arr_libelle":"18\u00e8me Ardt","arr_insee":75118,"annee_scol":"2022-2023","type_etabl":"Coll\u00e8ge","geo_point_2d":{"lon":2.359697412102091,"lat":48.888496875091114}}},{"type":"Feature","geometry":{"coordinates":[2.3546739157184287,48.83789635698398],"type":"Point"},"properties":{"id_projet":"COLLEGES (ann\u00e9e scolaire 2022\/2023)","libelle":"RAYMOND QUENEAU","adresse":"66 BOULEVARD SAINT-MARCEL","arr_libelle":"5\u00e8me Ardt","arr_insee":75105,"annee_scol":"2022-2023","type_etabl":"Coll\u00e8ge","geo_point_2d":{"lon":2.3546739157184287,"lat":48.83789635698398}}},{"type":"Feature","geometry":{"coordinates":[2.3392948014490216,48.842354560857245],"type":"Point"},"properties":{"id_projet":"COLLEGES (ann\u00e9e scolaire 2022\/2023)","libelle":"LAVOISIER","adresse":"17 RUE HENRI BARBUSSE","arr_libelle":"5\u00e8me Ardt","arr_insee":75105,"annee_scol":"2022-2023","type_etabl":"Coll\u00e8ge","geo_point_2d":{"lon":2.3392948014490216,"lat":48.842354560857245}}},{"type":"Feature","geometry":{"coordinates":[2.347383672470346,48.846358092872286],"type":"Point"},"properties":{"id_projet":"COLLEGES (ann\u00e9e scolaire 2023\/2024)","libelle":"HENRI IV","adresse":"23 RUE CLOVIS","arr_libelle":"5\u00e8me Ardt","arr_insee":75105,"annee_scol":"2023-2024","type_etabl":"Coll\u00e8ge","geo_point_2d":{"lon":2.347383672470346,"lat":48.846358092872286}}},{"type":"Feature","geometry":{"coordinates":[2.349089434845314,48.87838139909923],"type":"Point"},"properties":{"id_projet":"COLLEGES (ann\u00e9e scolaire 2023\/2024)","libelle":"LAMARTINE","adresse":"121 RUE DU FAUBOURG POISSONNIERE","arr_libelle":"9\u00e8me Ardt","arr_insee":75109,"annee_scol":"2023-2024","type_etabl":"Coll\u00e8ge","geo_point_2d":{"lon":2.349089434845314,"lat":48.87838139909923}}},{"type":"Feature","geometry":{"coordinates":[2.3573979777840735,48.86669135689307],"type":"Point"},"properties":{"id_projet":"COLLEGES (ann\u00e9e scolaire 2023\/2024)","libelle":"MONTGOLFIER","adresse":"15 RUE MONTGOLFIER","arr_libelle":"3\u00e8me Ardt","arr_insee":75103,"annee_scol":"2023-2024","type_etabl":"Coll\u00e8ge","geo_point_2d":{"lon":2.3573979777840735,"lat":48.86669135689307}}},{"type":"Feature","geometry":{"coordinates":[2.385349731136482,48.877493391773086],"type":"Point"},"properties":{"id_projet":"COLLEGES (ann\u00e9e scolaire 2023\/2024)","libelle":"CLAUDE CHAPPE","adresse":"9 RUE DES ALOUETTES","arr_libelle":"19\u00e8me Ardt","arr_insee":75119,"annee_scol":"2023-2024","type_etabl":"Coll\u00e8ge","geo_point_2d":{"lon":2.385349731136482,"lat":48.877493391773086}}},{"type":"Feature","geometry":{"coordinates":[2.379308212552385,48.88957595365006],"type":"Point"},"properties":{"id_projet":"COLLEGES (ann\u00e9e scolaire 2023\/2024)","libelle":"MOZART","adresse":"7 RUE JOMARD","arr_libelle":"19\u00e8me Ardt","arr_insee":75119,"annee_scol":"2023-2024","type_etabl":"Coll\u00e8ge","geo_point_2d":{"lon":2.379308212552385,"lat":48.88957595365006}}},{"type":"Feature","geometry":{"coordinates":[2.3154768243409674,48.89553072920293],"type":"Point"},"properties":{"id_projet":"COLLEGES (ann\u00e9e scolaire 2023\/2024)","libelle":"HONORE DE BALZAC","adresse":"118 BOULEVARD BESSIERES","arr_libelle":"17\u00e8me Ardt","arr_insee":75117,"annee_scol":"2023-2024","type_etabl":"Coll\u00e8ge","geo_point_2d":{"lon":2.3154768243409674,"lat":48.89553072920293}}},{"type":"Feature","geometry":{"coordinates":[2.4069675330447433,48.84781843548246],"type":"Point"},"properties":{"id_projet":"COLLEGES (ann\u00e9e scolaire 2023\/2024)","libelle":"HELENE BOUCHER","adresse":"75 COURS DE VINCENNES","arr_libelle":"20\u00e8me Ardt","arr_insee":75120,"annee_scol":"2023-2024","type_etabl":"Coll\u00e8ge","geo_point_2d":{"lon":2.4069675330447433,"lat":48.84781843548246}}},{"type":"Feature","geometry":{"coordinates":[2.310037489456155,48.88933528450427],"type":"Point"},"properties":{"id_projet":"COLLEGES (ann\u00e9e scolaire 2024\/2025)","libelle":"ROSE BLANCHE","adresse":"101 RUE DE SAUSSURE","arr_libelle":"17\u00e8me Ardt","arr_insee":75117,"annee_scol":"2024-2025","type_etabl":"Coll\u00e8ge","geo_point_2d":{"lon":2.310037489456155,"lat":48.88933528450427}}},{"type":"Feature","geometry":{"coordinates":[2.3047394660611222,48.83170273369949],"type":"Point"},"properties":{"id_projet":"COLLEGES (ann\u00e9e scolaire 2024\/2025)","libelle":"AMEDEO MODIGLIANI","adresse":"1 RUE DE CHERBOURG","arr_libelle":"15\u00e8me Ardt","arr_insee":75115,"annee_scol":"2024-2025","type_etabl":"Coll\u00e8ge","geo_point_2d":{"lon":2.3047394660611222,"lat":48.83170273369949}}},{"type":"Feature","geometry":{"coordinates":[2.2785902524445145,48.838859569842995],"type":"Point"},"properties":{"id_projet":"COLLEGES (ann\u00e9e scolaire 2024\/2025)","libelle":"ANDRE CITROEN","adresse":"208 RUE SAINT-CHARLES","arr_libelle":"15\u00e8me Ardt","arr_insee":75115,"annee_scol":"2024-2025","type_etabl":"Coll\u00e8ge","geo_point_2d":{"lon":2.2785902524445145,"lat":48.838859569842995}}},{"type":"Feature","geometry":{"coordinates":[2.387974290425766,48.86707415481146],"type":"Point"},"properties":{"id_projet":"COLLEGES (ann\u00e9e scolaire 2024\/2025)","libelle":"ROBERT DOISNEAU","adresse":"51 RUE DES PANOYAUX","arr_libelle":"20\u00e8me Ardt","arr_insee":75120,"annee_scol":"2024-2025","type_etabl":"Coll\u00e8ge","geo_point_2d":{"lon":2.387974290425766,"lat":48.86707415481146}}},{"type":"Feature","geometry":{"coordinates":[2.272125246761933,48.85500051295463],"type":"Point"},"properties":{"id_projet":"COLLEGES (ann\u00e9e scolaire 2024\/2025)","libelle":"MOLIERE","adresse":"71 RUE DU RANELAGH","arr_libelle":"16\u00e8me Ardt","arr_insee":75116,"annee_scol":"2024-2025","type_etabl":"Coll\u00e8ge","geo_point_2d":{"lon":2.272125246761933,"lat":48.85500051295463}}},{"type":"Feature","geometry":{"coordinates":[2.377938859129365,48.82891771170081],"type":"Point"},"properties":{"id_projet":"COLLEGES (ann\u00e9e scolaire 2024\/2025)","libelle":"THOMAS MANN","adresse":"91 AVENUE DE FRANCE","arr_libelle":"13\u00e8me Ardt","arr_insee":75113,"annee_scol":"2024-2025","type_etabl":"Coll\u00e8ge","geo_point_2d":{"lon":2.377938859129365,"lat":48.82891771170081}}},{"type":"Feature","geometry":{"coordinates":[2.404630008354641,48.85874304494558],"type":"Point"},"properties":{"id_projet":"COLLEGES (ann\u00e9e scolaire 2024\/2025)","libelle":"FLORA TRISTAN","adresse":"4 RUE GALLERON","arr_libelle":"20\u00e8me Ardt","arr_insee":75120,"annee_scol":"2024-2025","type_etabl":"Coll\u00e8ge","geo_point_2d":{"lon":2.404630008354641,"lat":48.85874304494558}}},{"type":"Feature","geometry":{"coordinates":[2.3478620292642036,48.88824190894073],"type":"Point"},"properties":{"id_projet":"COLLEGES (ann\u00e9e scolaire 2025\/2026)","libelle":"ROLAND DORGELES","adresse":"63 RUE DE CLIGNANCOURT","arr_libelle":"18\u00e8me Ardt","arr_insee":75118,"annee_scol":"2025-2026","type_etabl":"Coll\u00e8ge","geo_point_2d":{"lon":2.3478620292642036,"lat":48.88824190894073}}},{"type":"Feature","geometry":{"coordinates":[2.3515397719869475,48.88906745779489],"type":"Point"},"properties":{"id_projet":"COLLEGES (ann\u00e9e scolaire 2025\/2026)","libelle":"GEORGES CLEMENCEAU","adresse":"43 RUE DES POISSONNIERS","arr_libelle":"18\u00e8me Ardt","arr_insee":75118,"annee_scol":"2025-2026","type_etabl":"Coll\u00e8ge","geo_point_2d":{"lon":2.3515397719869475,"lat":48.88906745779489}}},{"type":"Feature","geometry":{"coordinates":[2.3328455414566878,48.85473387190791],"type":"Point"},"properties":{"id_projet":"COLLEGES (ann\u00e9e scolaire 2025\/2026)","libelle":"JACQUES PREVERT","adresse":"18 RUE SAINT-BENOIT","arr_libelle":"6\u00e8me Ardt","arr_insee":75106,"annee_scol":"2025-2026","type_etabl":"Coll\u00e8ge","geo_point_2d":{"lon":2.3328455414566878,"lat":48.85473387190791}}},{"type":"Feature","geometry":{"coordinates":[2.3603556466085682,48.85415628971142],"type":"Point"},"properties":{"id_projet":"COLLEGES (ann\u00e9e scolaire 2025\/2026)","libelle":"CHARLEMAGNE","adresse":"13 RUE CHARLEMAGNE","arr_libelle":"4\u00e8me Ardt","arr_insee":75104,"annee_scol":"2025-2026","type_etabl":"Coll\u00e8ge","geo_point_2d":{"lon":2.3603556466085682,"lat":48.85415628971142}}},{"type":"Feature","geometry":{"coordinates":[2.332815674978112,48.89581466967536],"type":"Point"},"properties":{"id_projet":"COLLEGES (ann\u00e9e scolaire 2025\/2026)","libelle":"HECTOR BERLIOZ","adresse":"17 RUE GEORGETTE AGUTTE","arr_libelle":"18\u00e8me Ardt","arr_insee":75118,"annee_scol":"2025-2026","type_etabl":"Coll\u00e8ge","geo_point_2d":{"lon":2.332815674978112,"lat":48.89581466967536}}},{"type":"Feature","geometry":{"coordinates":[2.3845254514835212,48.86352557226195],"type":"Point"},"properties":{"id_projet":"COLLEGES (ann\u00e9e scolaire 2020\/2021)","libelle":"VOLTAIRE","adresse":"101 AVENUE DE LA REPUBLIQUE","arr_libelle":"11\u00e8me Ardt","arr_insee":75111,"annee_scol":"2020-2021","type_etabl":"Coll\u00e8ge","geo_point_2d":{"lon":2.3845254514835212,"lat":48.86352557226195}}},{"type":"Feature","geometry":{"coordinates":[2.3789595976766833,48.881293191571345],"type":"Point"},"properties":{"id_projet":"COLLEGES (ann\u00e9e scolaire 2020\/2021)","libelle":"EDOUARD PAILLERON","adresse":"35 RUE EDOUARD PAILLERON","arr_libelle":"19\u00e8me Ardt","arr_insee":75119,"annee_scol":"2020-2021","type_etabl":"Coll\u00e8ge","geo_point_2d":{"lon":2.3789595976766833,"lat":48.881293191571345}}},{"type":"Feature","geometry":{"coordinates":[2.4057395667212846,48.8441317781261],"type":"Point"},"properties":{"id_projet":"COLLEGES (ann\u00e9e scolaire 2020\/2021)","libelle":"GEORGES COURTELINE","adresse":"48 bis AVENUE DU DOCTEUR ARNOLD NETTER","arr_libelle":"12\u00e8me Ardt","arr_insee":75112,"annee_scol":"2020-2021","type_etabl":"Coll\u00e8ge","geo_point_2d":{"lon":2.4057395667212846,"lat":48.8441317781261}}},{"type":"Feature","geometry":{"coordinates":[2.4069675330447433,48.84781843548246],"type":"Point"},"properties":{"id_projet":"COLLEGES (ann\u00e9e scolaire 2020\/2021)","libelle":"HELENE BOUCHER","adresse":"75 COURS DE VINCENNES","arr_libelle":"20\u00e8me Ardt","arr_insee":75120,"annee_scol":"2020-2021","type_etabl":"Coll\u00e8ge","geo_point_2d":{"lon":2.4069675330447433,"lat":48.84781843548246}}},{"type":"Feature","geometry":{"coordinates":[2.3558852290755237,48.82601379702334],"type":"Point"},"properties":{"id_projet":"COLLEGES (ann\u00e9e scolaire 2020\/2021)","libelle":"GEORGE SAND","adresse":"159 RUE DE TOLBIAC","arr_libelle":"13\u00e8me Ardt","arr_insee":75113,"annee_scol":"2020-2021","type_etabl":"Coll\u00e8ge","geo_point_2d":{"lon":2.3558852290755237,"lat":48.82601379702334}}},{"type":"Feature","geometry":{"coordinates":[2.386137299021649,48.845408021178045],"type":"Point"},"properties":{"id_projet":"COLLEGES (ann\u00e9e scolaire 2020\/2021)","libelle":"GUY FLAVIEN","adresse":"6 RUE D' ARTAGNAN","arr_libelle":"12\u00e8me Ardt","arr_insee":75112,"annee_scol":"2020-2021","type_etabl":"Coll\u00e8ge","geo_point_2d":{"lon":2.386137299021649,"lat":48.845408021178045}}},{"type":"Feature","geometry":{"coordinates":[2.3941783022137617,48.8375505143775],"type":"Point"},"properties":{"id_projet":"COLLEGES (ann\u00e9e scolaire 2021\/2022)","libelle":"JULES VERNE","adresse":"20 RUE DE LA BRECHE AUX LOUPS","arr_libelle":"12\u00e8me Ardt","arr_insee":75112,"annee_scol":"2021-2022","type_etabl":"Coll\u00e8ge","geo_point_2d":{"lon":2.3941783022137617,"lat":48.8375505143775}}},{"type":"Feature","geometry":{"coordinates":[2.3765366364279124,48.87628979019915],"type":"Point"},"properties":{"id_projet":"COLLEGES (ann\u00e9e scolaire 2021\/2022)","libelle":"CHARLES PEGUY","adresse":"69 AVENUE SIMON BOLIVAR","arr_libelle":"19\u00e8me Ardt","arr_insee":75119,"annee_scol":"2021-2022","type_etabl":"Coll\u00e8ge","geo_point_2d":{"lon":2.3765366364279124,"lat":48.87628979019915}}},{"type":"Feature","geometry":{"coordinates":[2.3291456039155314,48.8843501739233],"type":"Point"},"properties":{"id_projet":"COLLEGES (ann\u00e9e scolaire 2021\/2022)","libelle":"JULES FERRY","adresse":"77 bis BOULEVARD DE CLICHY","arr_libelle":"9\u00e8me Ardt","arr_insee":75109,"annee_scol":"2021-2022","type_etabl":"Coll\u00e8ge","geo_point_2d":{"lon":2.3291456039155314,"lat":48.8843501739233}}},{"type":"Feature","geometry":{"coordinates":[2.349089434845314,48.87838139909923],"type":"Point"},"properties":{"id_projet":"COLLEGES (ann\u00e9e scolaire 2021\/2022)","libelle":"LAMARTINE","adresse":"121 RUE DU FAUBOURG POISSONNIERE","arr_libelle":"9\u00e8me Ardt","arr_insee":75109,"annee_scol":"2021-2022","type_etabl":"Coll\u00e8ge","geo_point_2d":{"lon":2.349089434845314,"lat":48.87838139909923}}},{"type":"Feature","geometry":{"coordinates":[2.378040375653599,48.881137694884536],"type":"Point"},"properties":{"id_projet":"COLLEGES (ann\u00e9e scolaire 2021\/2022)","libelle":"HENRI BERGSON","adresse":"27 bis RUE EDOUARD PAILLERON","arr_libelle":"19\u00e8me Ardt","arr_insee":75119,"annee_scol":"2021-2022","type_etabl":"Coll\u00e8ge","geo_point_2d":{"lon":2.378040375653599,"lat":48.881137694884536}}},{"type":"Feature","geometry":{"coordinates":[2.3101706958480466,48.843618305404966],"type":"Point"},"properties":{"id_projet":"COLLEGES (ann\u00e9e scolaire 2022\/2023)","libelle":"MADAME DE STAEL","adresse":"14 RUE DE STAEL","arr_libelle":"15\u00e8me Ardt","arr_insee":75115,"annee_scol":"2022-2023","type_etabl":"Coll\u00e8ge","geo_point_2d":{"lon":2.3101706958480466,"lat":48.843618305404966}}},{"type":"Feature","geometry":{"coordinates":[2.328851213098646,48.84104135758076],"type":"Point"},"properties":{"id_projet":"COLLEGES (ann\u00e9e scolaire 2022\/2023)","libelle":"PAUL BERT","adresse":"8 RUE HUYGHENS","arr_libelle":"14\u00e8me Ardt","arr_insee":75114,"annee_scol":"2022-2023","type_etabl":"Coll\u00e8ge","geo_point_2d":{"lon":2.328851213098646,"lat":48.84104135758076}}},{"type":"Feature","geometry":{"coordinates":[2.385349731136482,48.877493391773086],"type":"Point"},"properties":{"id_projet":"COLLEGES (ann\u00e9e scolaire 2022\/2023)","libelle":"CLAUDE CHAPPE","adresse":"9 RUE DES ALOUETTES","arr_libelle":"19\u00e8me Ardt","arr_insee":75119,"annee_scol":"2022-2023","type_etabl":"Coll\u00e8ge","geo_point_2d":{"lon":2.385349731136482,"lat":48.877493391773086}}},{"type":"Feature","geometry":{"coordinates":[2.379036766249539,48.85192514675005],"type":"Point"},"properties":{"id_projet":"COLLEGES (ann\u00e9e scolaire 2022\/2023)","libelle":"ANNE FRANK","adresse":"38 RUE TROUSSEAU","arr_libelle":"11\u00e8me Ardt","arr_insee":75111,"annee_scol":"2022-2023","type_etabl":"Coll\u00e8ge","geo_point_2d":{"lon":2.379036766249539,"lat":48.85192514675005}}},{"type":"Feature","geometry":{"coordinates":[2.351945405253571,48.89445882794094],"type":"Point"},"properties":{"id_projet":"COLLEGES (ann\u00e9e scolaire 2022\/2023)","libelle":"GERARD PHILIPE","adresse":"8 RUE DES AMIRAUX","arr_libelle":"18\u00e8me Ardt","arr_insee":75118,"annee_scol":"2022-2023","type_etabl":"Coll\u00e8ge","geo_point_2d":{"lon":2.351945405253571,"lat":48.89445882794094}}},{"type":"Feature","geometry":{"coordinates":[2.3527133607661415,48.82878642051567],"type":"Point"},"properties":{"id_projet":"COLLEGES (ann\u00e9e scolaire 2022\/2023)","libelle":"MOULIN DES PRES","adresse":"18 RUE DU MOULIN DES PRES","arr_libelle":"13\u00e8me Ardt","arr_insee":75113,"annee_scol":"2022-2023","type_etabl":"Coll\u00e8ge","geo_point_2d":{"lon":2.3527133607661415,"lat":48.82878642051567}}},{"type":"Feature","geometry":{"coordinates":[2.3044618079108674,48.890576927502146],"type":"Point"},"properties":{"id_projet":"COLLEGES (ann\u00e9e scolaire 2022\/2023)","libelle":"BORIS VIAN","adresse":"76 BOULEVARD BERTHIER","arr_libelle":"17\u00e8me Ardt","arr_insee":75117,"annee_scol":"2022-2023","type_etabl":"Coll\u00e8ge","geo_point_2d":{"lon":2.3044618079108674,"lat":48.890576927502146}}},{"type":"Feature","geometry":{"coordinates":[2.387212273993633,48.851962677558625],"type":"Point"},"properties":{"id_projet":"COLLEGES (ann\u00e9e scolaire 2022\/2023)","libelle":"PILATRE DE ROZIER","adresse":"11 RUE BOUVIER","arr_libelle":"11\u00e8me Ardt","arr_insee":75111,"annee_scol":"2022-2023","type_etabl":"Coll\u00e8ge","geo_point_2d":{"lon":2.387212273993633,"lat":48.851962677558625}}},{"type":"Feature","geometry":{"coordinates":[2.366634856571281,48.87798501995133],"type":"Point"},"properties":{"id_projet":"COLLEGES (ann\u00e9e scolaire 2022\/2023)","libelle":"LA GRANGE AUX BELLES","adresse":"158 QUAI DE JEMMAPES","arr_libelle":"10\u00e8me Ardt","arr_insee":75110,"annee_scol":"2022-2023","type_etabl":"Coll\u00e8ge","geo_point_2d":{"lon":2.366634856571281,"lat":48.87798501995133}}},{"type":"Feature","geometry":{"coordinates":[2.3788765489694663,48.898608723283154],"type":"Point"},"properties":{"id_projet":"COLLEGES (ann\u00e9e scolaire 2022\/2023)","libelle":"SUZANNE LACORE","adresse":"149 BOULEVARD MACDONALD","arr_libelle":"19\u00e8me Ardt","arr_insee":75119,"annee_scol":"2022-2023","type_etabl":"Coll\u00e8ge","geo_point_2d":{"lon":2.3788765489694663,"lat":48.898608723283154}}},{"type":"Feature","geometry":{"coordinates":[2.3863943215388685,48.88433022802427],"type":"Point"},"properties":{"id_projet":"COLLEGES (ann\u00e9e scolaire 2022\/2023)","libelle":"GEORGES BRASSENS","adresse":"4 RUE ERIK SATIE","arr_libelle":"19\u00e8me Ardt","arr_insee":75119,"annee_scol":"2022-2023","type_etabl":"Coll\u00e8ge","geo_point_2d":{"lon":2.3863943215388685,"lat":48.88433022802427}}},{"type":"Feature","geometry":{"coordinates":[2.3291456039155314,48.8843501739233],"type":"Point"},"properties":{"id_projet":"COLLEGES (ann\u00e9e scolaire 2022\/2023)","libelle":"JULES FERRY","adresse":"77 bis BOULEVARD DE CLICHY","arr_libelle":"9\u00e8me Ardt","arr_insee":75109,"annee_scol":"2022-2023","type_etabl":"Coll\u00e8ge","geo_point_2d":{"lon":2.3291456039155314,"lat":48.8843501739233}}},{"type":"Feature","geometry":{"coordinates":[2.404630008354641,48.85874304494558],"type":"Point"},"properties":{"id_projet":"COLLEGES (ann\u00e9e scolaire 2023\/2024)","libelle":"FLORA TRISTAN","adresse":"4 RUE GALLERON","arr_libelle":"20\u00e8me Ardt","arr_insee":75120,"annee_scol":"2023-2024","type_etabl":"Coll\u00e8ge","geo_point_2d":{"lon":2.404630008354641,"lat":48.85874304494558}}},{"type":"Feature","geometry":{"coordinates":[2.3849235011315018,48.86642227484253],"type":"Point"},"properties":{"id_projet":"COLLEGES (ann\u00e9e scolaire 2023\/2024)","libelle":"COLETTE BESSON","adresse":"9 RUE DES PANOYAUX","arr_libelle":"20\u00e8me Ardt","arr_insee":75120,"annee_scol":"2023-2024","type_etabl":"Coll\u00e8ge","geo_point_2d":{"lon":2.3849235011315018,"lat":48.86642227484253}}},{"type":"Feature","geometry":{"coordinates":[2.401975118872313,48.85645682794513],"type":"Point"},"properties":{"id_projet":"COLLEGES (ann\u00e9e scolaire 2023\/2024)","libelle":"HENRI MATISSE","adresse":"3 RUE VITRUVE","arr_libelle":"20\u00e8me Ardt","arr_insee":75120,"annee_scol":"2023-2024","type_etabl":"Coll\u00e8ge","geo_point_2d":{"lon":2.401975118872313,"lat":48.85645682794513}}},{"type":"Feature","geometry":{"coordinates":[2.368318407704825,48.881623867084365],"type":"Point"},"properties":{"id_projet":"COLLEGES (ann\u00e9e scolaire 2023\/2024)","libelle":"VALMY","adresse":"199 QUAI DE VALMY","arr_libelle":"10\u00e8me Ardt","arr_insee":75110,"annee_scol":"2023-2024","type_etabl":"Coll\u00e8ge","geo_point_2d":{"lon":2.368318407704825,"lat":48.881623867084365}}},{"type":"Feature","geometry":{"coordinates":[2.371691242263032,48.87485079446566],"type":"Point"},"properties":{"id_projet":"COLLEGES (ann\u00e9e scolaire 2024\/2025)","libelle":"FRANCOISE SELIGMAN","adresse":"21 RUE DE SAMBRE ET MEUSE","arr_libelle":"10\u00e8me Ardt","arr_insee":75110,"annee_scol":"2024-2025","type_etabl":"Coll\u00e8ge","geo_point_2d":{"lon":2.371691242263032,"lat":48.87485079446566}}},{"type":"Feature","geometry":{"coordinates":[2.282679643541085,48.8465711128111],"type":"Point"},"properties":{"id_projet":"COLLEGES (ann\u00e9e scolaire 2024\/2025)","libelle":"GUILLAUME APOLLINAIRE","adresse":"39 AVENUE EMILE ZOLA","arr_libelle":"15\u00e8me Ardt","arr_insee":75115,"annee_scol":"2024-2025","type_etabl":"Coll\u00e8ge","geo_point_2d":{"lon":2.282679643541085,"lat":48.8465711128111}}},{"type":"Feature","geometry":{"coordinates":[2.3527133607661415,48.82878642051567],"type":"Point"},"properties":{"id_projet":"COLLEGES (ann\u00e9e scolaire 2024\/2025)","libelle":"MOULIN DES PRES","adresse":"18 RUE DU MOULIN DES PRES","arr_libelle":"13\u00e8me Ardt","arr_insee":75113,"annee_scol":"2024-2025","type_etabl":"Coll\u00e8ge","geo_point_2d":{"lon":2.3527133607661415,"lat":48.82878642051567}}},{"type":"Feature","geometry":{"coordinates":[2.363067598532842,48.8895947927362],"type":"Point"},"properties":{"id_projet":"COLLEGES (ann\u00e9e scolaire 2024\/2025)","libelle":"AIME CESAIRE","adresse":"22 RUE PAJOL","arr_libelle":"18\u00e8me Ardt","arr_insee":75118,"annee_scol":"2024-2025","type_etabl":"Coll\u00e8ge","geo_point_2d":{"lon":2.363067598532842,"lat":48.8895947927362}}},{"type":"Feature","geometry":{"coordinates":[2.3789595976766833,48.881293191571345],"type":"Point"},"properties":{"id_projet":"COLLEGES (ann\u00e9e scolaire 2024\/2025)","libelle":"EDOUARD PAILLERON","adresse":"35 RUE EDOUARD PAILLERON","arr_libelle":"19\u00e8me Ardt","arr_insee":75119,"annee_scol":"2024-2025","type_etabl":"Coll\u00e8ge","geo_point_2d":{"lon":2.3789595976766833,"lat":48.881293191571345}}},{"type":"Feature","geometry":{"coordinates":[2.3625004439080515,48.83141317840951],"type":"Point"},"properties":{"id_projet":"COLLEGES (ann\u00e9e scolaire 2024\/2025)","libelle":"ELSA TRIOLET","adresse":"9 RUE YEO THOMAS","arr_libelle":"13\u00e8me Ardt","arr_insee":75113,"annee_scol":"2024-2025","type_etabl":"Coll\u00e8ge","geo_point_2d":{"lon":2.3625004439080515,"lat":48.83141317840951}}},{"type":"Feature","geometry":{"coordinates":[2.349089434845314,48.87838139909923],"type":"Point"},"properties":{"id_projet":"COLLEGES (ann\u00e9e scolaire 2024\/2025)","libelle":"LAMARTINE","adresse":"121 RUE DU FAUBOURG POISSONNIERE","arr_libelle":"9\u00e8me Ardt","arr_insee":75109,"annee_scol":"2024-2025","type_etabl":"Coll\u00e8ge","geo_point_2d":{"lon":2.349089434845314,"lat":48.87838139909923}}},{"type":"Feature","geometry":{"coordinates":[2.376485834379865,48.89366655755415],"type":"Point"},"properties":{"id_projet":"COLLEGES (ann\u00e9e scolaire 2024\/2025)","libelle":"EDMOND MICHELET","adresse":"70 RUE DE L' OURCQ","arr_libelle":"19\u00e8me Ardt","arr_insee":75119,"annee_scol":"2024-2025","type_etabl":"Coll\u00e8ge","geo_point_2d":{"lon":2.376485834379865,"lat":48.89366655755415}}},{"type":"Feature","geometry":{"coordinates":[2.310037489456155,48.88933528450427],"type":"Point"},"properties":{"id_projet":"COLLEGES (ann\u00e9e scolaire 2025\/2026)","libelle":"ROSE BLANCHE","adresse":"101 RUE DE SAUSSURE","arr_libelle":"17\u00e8me Ardt","arr_insee":75117,"annee_scol":"2025-2026","type_etabl":"Coll\u00e8ge","geo_point_2d":{"lon":2.310037489456155,"lat":48.88933528450427}}},{"type":"Feature","geometry":{"coordinates":[2.2915976475106854,48.84529147463902],"type":"Point"},"properties":{"id_projet":"COLLEGES (ann\u00e9e scolaire 2025\/2026)","libelle":"CLAUDE DEBUSSY","adresse":"4 PLACE DU COMMERCE","arr_libelle":"15\u00e8me Ardt","arr_insee":75115,"annee_scol":"2025-2026","type_etabl":"Coll\u00e8ge","geo_point_2d":{"lon":2.2915976475106854,"lat":48.84529147463902}}},{"type":"Feature","geometry":{"coordinates":[2.3283199536449017,48.827730325591624],"type":"Point"},"properties":{"id_projet":"COLLEGES (ann\u00e9e scolaire 2025\/2026)","libelle":"JEAN MOULIN","adresse":"75 RUE D' ALESIA","arr_libelle":"14\u00e8me Ardt","arr_insee":75114,"annee_scol":"2025-2026","type_etabl":"Coll\u00e8ge","geo_point_2d":{"lon":2.3283199536449017,"lat":48.827730325591624}}},{"type":"Feature","geometry":{"coordinates":[2.4057395667212846,48.8441317781261],"type":"Point"},"properties":{"id_projet":"COLLEGES (ann\u00e9e scolaire 2025\/2026)","libelle":"GEORGES COURTELINE","adresse":"48 bis AVENUE DU DOCTEUR ARNOLD NETTER","arr_libelle":"12\u00e8me Ardt","arr_insee":75112,"annee_scol":"2025-2026","type_etabl":"Coll\u00e8ge","geo_point_2d":{"lon":2.4057395667212846,"lat":48.8441317781261}}},{"type":"Feature","geometry":{"coordinates":[2.388586748411057,48.88915990325219],"type":"Point"},"properties":{"id_projet":"COLLEGES (ann\u00e9e scolaire 2020\/2021)","libelle":"EDGAR VARESE","adresse":"16 RUE ADOLPHE MILLE","arr_libelle":"19\u00e8me Ardt","arr_insee":75119,"annee_scol":"2020-2021","type_etabl":"Coll\u00e8ge","geo_point_2d":{"lon":2.388586748411057,"lat":48.88915990325219}}},{"type":"Feature","geometry":{"coordinates":[2.358378714817569,48.81844173613279],"type":"Point"},"properties":{"id_projet":"COLLEGES (ann\u00e9e scolaire 2020\/2021)","libelle":"EVARISTE GALOIS","adresse":"11 RUE DU DOCTEUR BOURNEVILLE","arr_libelle":"13\u00e8me Ardt","arr_insee":75113,"annee_scol":"2020-2021","type_etabl":"Coll\u00e8ge","geo_point_2d":{"lon":2.358378714817569,"lat":48.81844173613279}}},{"type":"Feature","geometry":{"coordinates":[2.3603556466085682,48.85415628971142],"type":"Point"},"properties":{"id_projet":"COLLEGES (ann\u00e9e scolaire 2020\/2021)","libelle":"CHARLEMAGNE","adresse":"13 RUE CHARLEMAGNE","arr_libelle":"4\u00e8me Ardt","arr_insee":75104,"annee_scol":"2020-2021","type_etabl":"Coll\u00e8ge","geo_point_2d":{"lon":2.3603556466085682,"lat":48.85415628971142}}},{"type":"Feature","geometry":{"coordinates":[2.406501323731271,48.85090897148368],"type":"Point"},"properties":{"id_projet":"COLLEGES (ann\u00e9e scolaire 2020\/2021)","libelle":"LUCIE FAURE","adresse":"40 RUE DES PYRENEES","arr_libelle":"20\u00e8me Ardt","arr_insee":75120,"annee_scol":"2020-2021","type_etabl":"Coll\u00e8ge","geo_point_2d":{"lon":2.406501323731271,"lat":48.85090897148368}}},{"type":"Feature","geometry":{"coordinates":[2.2969840321284276,48.84299079681964],"type":"Point"},"properties":{"id_projet":"COLLEGES (ann\u00e9e scolaire 2020\/2021)","libelle":"CAMILLE SEE","adresse":"11 RUE LEON LHERMITTE","arr_libelle":"15\u00e8me Ardt","arr_insee":75115,"annee_scol":"2020-2021","type_etabl":"Coll\u00e8ge","geo_point_2d":{"lon":2.2969840321284276,"lat":48.84299079681964}}},{"type":"Feature","geometry":{"coordinates":[2.3148479397647423,48.85230001233898],"type":"Point"},"properties":{"id_projet":"COLLEGES (ann\u00e9e scolaire 2020\/2021)","libelle":"VICTOR DURUY","adresse":"33 BOULEVARD DES INVALIDES","arr_libelle":"7\u00e8me Ardt","arr_insee":75107,"annee_scol":"2020-2021","type_etabl":"Coll\u00e8ge","geo_point_2d":{"lon":2.3148479397647423,"lat":48.85230001233898}}},{"type":"Feature","geometry":{"coordinates":[2.290514944291562,48.87881043889032],"type":"Point"},"properties":{"id_projet":"COLLEGES (ann\u00e9e scolaire 2020\/2021)","libelle":"ANDRE MALRAUX","adresse":"5 bis RUE SAINT-FERDINAND","arr_libelle":"17\u00e8me Ardt","arr_insee":75117,"annee_scol":"2020-2021","type_etabl":"Coll\u00e8ge","geo_point_2d":{"lon":2.290514944291562,"lat":48.87881043889032}}},{"type":"Feature","geometry":{"coordinates":[2.311717565640409,48.8874299696971],"type":"Point"},"properties":{"id_projet":"COLLEGES (ann\u00e9e scolaire 2020\/2021)","libelle":"ROSE BLANCHE","adresse":"101 RUE DE SAUSSURE","arr_libelle":"17\u00e8me Ardt","arr_insee":75117,"annee_scol":"2020-2021","type_etabl":"Coll\u00e8ge","geo_point_2d":{"lon":2.311717565640409,"lat":48.8874299696971}}},{"type":"Feature","geometry":{"coordinates":[2.3354369048459884,48.834349034877256],"type":"Point"},"properties":{"id_projet":"COLLEGES (ann\u00e9e scolaire 2021\/2022)","libelle":"ST EXUPERY","adresse":"89 BOULEVARD ARAGO","arr_libelle":"14\u00e8me Ardt","arr_insee":75114,"annee_scol":"2021-2022","type_etabl":"Coll\u00e8ge","geo_point_2d":{"lon":2.3354369048459884,"lat":48.834349034877256}}},{"type":"Feature","geometry":{"coordinates":[2.3507358446303632,48.89334018854464],"type":"Point"},"properties":{"id_projet":"COLLEGES (ann\u00e9e scolaire 2021\/2022)","libelle":"MARIE CURIE","adresse":"23 RUE BOINOD","arr_libelle":"18\u00e8me Ardt","arr_insee":75118,"annee_scol":"2021-2022","type_etabl":"Coll\u00e8ge","geo_point_2d":{"lon":2.3507358446303632,"lat":48.89334018854464}}},{"type":"Feature","geometry":{"coordinates":[2.305819984025646,48.82622241072023],"type":"Point"},"properties":{"id_projet":"COLLEGES (ann\u00e9e scolaire 2021\/2022)","libelle":"FRANCOIS VILLON","adresse":"10 AVENUE MARC SANGNIER","arr_libelle":"14\u00e8me Ardt","arr_insee":75114,"annee_scol":"2021-2022","type_etabl":"Coll\u00e8ge","geo_point_2d":{"lon":2.305819984025646,"lat":48.82622241072023}}},{"type":"Feature","geometry":{"coordinates":[2.4069675330447433,48.84781843548246],"type":"Point"},"properties":{"id_projet":"COLLEGES (ann\u00e9e scolaire 2021\/2022)","libelle":"HELENE BOUCHER","adresse":"75 COURS DE VINCENNES","arr_libelle":"20\u00e8me Ardt","arr_insee":75120,"annee_scol":"2021-2022","type_etabl":"Coll\u00e8ge","geo_point_2d":{"lon":2.4069675330447433,"lat":48.84781843548246}}},{"type":"Feature","geometry":{"coordinates":[2.3845254514835212,48.86352557226195],"type":"Point"},"properties":{"id_projet":"COLLEGES (ann\u00e9e scolaire 2021\/2022)","libelle":"VOLTAIRE","adresse":"101 AVENUE DE LA REPUBLIQUE","arr_libelle":"11\u00e8me Ardt","arr_insee":75111,"annee_scol":"2021-2022","type_etabl":"Coll\u00e8ge","geo_point_2d":{"lon":2.3845254514835212,"lat":48.86352557226195}}},{"type":"Feature","geometry":{"coordinates":[2.347148574677879,48.83256966693821],"type":"Point"},"properties":{"id_projet":"COLLEGES (ann\u00e9e scolaire 2021\/2022)","libelle":"AUGUSTE RODIN","adresse":"19 RUE CORVISART","arr_libelle":"13\u00e8me Ardt","arr_insee":75113,"annee_scol":"2021-2022","type_etabl":"Coll\u00e8ge","geo_point_2d":{"lon":2.347148574677879,"lat":48.83256966693821}}},{"type":"Feature","geometry":{"coordinates":[2.3428861827644454,48.82458829124478],"type":"Point"},"properties":{"id_projet":"COLLEGES (ann\u00e9e scolaire 2022\/2023)","libelle":"GEORGES BRAQUE","adresse":"91 RUE BRILLAT-SAVARIN","arr_libelle":"13\u00e8me Ardt","arr_insee":75113,"annee_scol":"2022-2023","type_etabl":"Coll\u00e8ge","geo_point_2d":{"lon":2.3428861827644454,"lat":48.82458829124478}}},{"type":"Feature","geometry":{"coordinates":[2.3765366364279124,48.87628979019915],"type":"Point"},"properties":{"id_projet":"COLLEGES (ann\u00e9e scolaire 2022\/2023)","libelle":"CHARLES PEGUY","adresse":"69 AVENUE SIMON BOLIVAR","arr_libelle":"19\u00e8me Ardt","arr_insee":75119,"annee_scol":"2022-2023","type_etabl":"Coll\u00e8ge","geo_point_2d":{"lon":2.3765366364279124,"lat":48.87628979019915}}},{"type":"Feature","geometry":{"coordinates":[2.3849235011315018,48.86642227484253],"type":"Point"},"properties":{"id_projet":"COLLEGES (ann\u00e9e scolaire 2022\/2023)","libelle":"COLETTE BESSON","adresse":"9 RUE DES PANOYAUX","arr_libelle":"20\u00e8me Ardt","arr_insee":75120,"annee_scol":"2022-2023","type_etabl":"Coll\u00e8ge","geo_point_2d":{"lon":2.3849235011315018,"lat":48.86642227484253}}},{"type":"Feature","geometry":{"coordinates":[2.3298201952433653,48.89161762679698],"type":"Point"},"properties":{"id_projet":"COLLEGES (ann\u00e9e scolaire 2023\/2024)","libelle":"ANTOINE COYSEVOX","adresse":"16 RUE COYSEVOX","arr_libelle":"18\u00e8me Ardt","arr_insee":75118,"annee_scol":"2023-2024","type_etabl":"Coll\u00e8ge","geo_point_2d":{"lon":2.3298201952433653,"lat":48.89161762679698}}},{"type":"Feature","geometry":{"coordinates":[2.3863943215388685,48.88433022802427],"type":"Point"},"properties":{"id_projet":"COLLEGES (ann\u00e9e scolaire 2023\/2024)","libelle":"GEORGES BRASSENS","adresse":"4 RUE ERIK SATIE","arr_libelle":"19\u00e8me Ardt","arr_insee":75119,"annee_scol":"2023-2024","type_etabl":"Coll\u00e8ge","geo_point_2d":{"lon":2.3863943215388685,"lat":48.88433022802427}}},{"type":"Feature","geometry":{"coordinates":[2.2969840321284276,48.84299079681964],"type":"Point"},"properties":{"id_projet":"COLLEGES (ann\u00e9e scolaire 2023\/2024)","libelle":"CAMILLE SEE","adresse":"11 RUE LEON LHERMITTE","arr_libelle":"15\u00e8me Ardt","arr_insee":75115,"annee_scol":"2023-2024","type_etabl":"Coll\u00e8ge","geo_point_2d":{"lon":2.2969840321284276,"lat":48.84299079681964}}},{"type":"Feature","geometry":{"coordinates":[2.32697162874192,48.88097843520577],"type":"Point"},"properties":{"id_projet":"COLLEGES (ann\u00e9e scolaire 2023\/2024)","libelle":"CONDORCET","adresse":"61 RUE D' AMSTERDAM","arr_libelle":"8\u00e8me Ardt","arr_insee":75108,"annee_scol":"2023-2024","type_etabl":"Coll\u00e8ge","geo_point_2d":{"lon":2.32697162874192,"lat":48.88097843520577}}},{"type":"Feature","geometry":{"coordinates":[2.366634856571281,48.87798501995133],"type":"Point"},"properties":{"id_projet":"COLLEGES (ann\u00e9e scolaire 2023\/2024)","libelle":"LA GRANGE AUX BELLES","adresse":"158 QUAI DE JEMMAPES","arr_libelle":"10\u00e8me Ardt","arr_insee":75110,"annee_scol":"2023-2024","type_etabl":"Coll\u00e8ge","geo_point_2d":{"lon":2.366634856571281,"lat":48.87798501995133}}},{"type":"Feature","geometry":{"coordinates":[2.3040936300187407,48.88588609596083],"type":"Point"},"properties":{"id_projet":"COLLEGES (ann\u00e9e scolaire 2024\/2025)","libelle":"PIERRE DE RONSARD","adresse":"140 AVENUE DE WAGRAM","arr_libelle":"17\u00e8me Ardt","arr_insee":75117,"annee_scol":"2024-2025","type_etabl":"Coll\u00e8ge","geo_point_2d":{"lon":2.3040936300187407,"lat":48.88588609596083}}},{"type":"Feature","geometry":{"coordinates":[2.3838537411265492,48.85822327881152],"type":"Point"},"properties":{"id_projet":"COLLEGES (ann\u00e9e scolaire 2024\/2025)","libelle":"ALAIN FOURNIER","adresse":"87 RUE LEON FROT","arr_libelle":"11\u00e8me Ardt","arr_insee":75111,"annee_scol":"2024-2025","type_etabl":"Coll\u00e8ge","geo_point_2d":{"lon":2.3838537411265492,"lat":48.85822327881152}}},{"type":"Feature","geometry":{"coordinates":[2.3546739157184287,48.83789635698398],"type":"Point"},"properties":{"id_projet":"COLLEGES (ann\u00e9e scolaire 2024\/2025)","libelle":"RAYMOND QUENEAU","adresse":"66 BOULEVARD SAINT-MARCEL","arr_libelle":"5\u00e8me Ardt","arr_insee":75105,"annee_scol":"2024-2025","type_etabl":"Coll\u00e8ge","geo_point_2d":{"lon":2.3546739157184287,"lat":48.83789635698398}}},{"type":"Feature","geometry":{"coordinates":[2.30723382524095,48.84264715695299],"type":"Point"},"properties":{"id_projet":"COLLEGES (ann\u00e9e scolaire 2024\/2025)","libelle":"GEORGES DUHAMEL","adresse":"13 RUE DES VOLONTAIRES","arr_libelle":"15\u00e8me Ardt","arr_insee":75115,"annee_scol":"2024-2025","type_etabl":"Coll\u00e8ge","geo_point_2d":{"lon":2.30723382524095,"lat":48.84264715695299}}},{"type":"Feature","geometry":{"coordinates":[2.32448159826506,48.8934820195837],"type":"Point"},"properties":{"id_projet":"COLLEGES (ann\u00e9e scolaire 2024\/2025)","libelle":"STEPHANE MALLARME","adresse":"29 RUE DE LA JONQUIERE","arr_libelle":"17\u00e8me Ardt","arr_insee":75117,"annee_scol":"2024-2025","type_etabl":"Coll\u00e8ge","geo_point_2d":{"lon":2.32448159826506,"lat":48.8934820195837}}},{"type":"Feature","geometry":{"coordinates":[2.3781287412764107,48.88593429740651],"type":"Point"},"properties":{"id_projet":"COLLEGES (ann\u00e9e scolaire 2024\/2025)","libelle":"SONIA DELAUNAY","adresse":"14 RUE EURYALE DEHAYNIN","arr_libelle":"19\u00e8me Ardt","arr_insee":75119,"annee_scol":"2024-2025","type_etabl":"Coll\u00e8ge","geo_point_2d":{"lon":2.3781287412764107,"lat":48.88593429740651}}},{"type":"Feature","geometry":{"coordinates":[2.404630008354641,48.85874304494558],"type":"Point"},